Brand,Store Name,Address,City,State,Zipcode,Phone,Latitude,Longitude
McDonald's,McDonald's - Stayton,1988 Shaff Rd,Stayton,OR,97383,(503) 769-4552,44.809491,-122.814058
McDonald's,McDonald's - Howell,2205 W Grand River Rd,Howell,MI,48843,(517) 545-7777,42.614258,-83.959404
McDonald's,McDonald's - Linton,St Rd 54 E,Linton,IN,47441,(812) 847-2767,39.038269,-87.146076
McDonald's,McDonald's - San Marcos,4060 S Interstate 35,San Marcos,TX,78666,(512) 392-2772,29.827162,-97.987476
McDonald's,McDonald's - San Jose,5122 Stevens Creek Blvd,San Jose,CA,95129,(408) 554-0883,37.322662,-121.992832
McDonald's,McDonald's - Wauconda,511 W Liberty St,Wauconda,IL,60084-2470,(847) 526-0288,42.258071,-88.15193
McDonald's,McDonald's - West Monroe,202 Thomas Rd,West Monroe,LA,71291-7361,(318) 388-2227,32.512487,-92.157824
McDonald's,McDonald's - Kuna,1311 N Meridian Road,Kuna,ID,83634,(208) 922-4766,43.500153,-116.394511
McDonald's,McDonald's - Chesapeake,209 Hillcrest Parkway,Chesapeake,VA,23322,(757) 432-8800,36.655283,-76.231613
McDonald's,McDonald's - Santee,8876 Cuyamaca St,Santee,CA,92071-4219,(619) 449-9950,32.837892,-116.984106
McDonald's,McDonald's - Waupun,932 E Main St,Waupun,WI,53963-1502,(920) 324-4937,43.633641,-88.717614
McDonald's,McDonald's - San Antonio,4720 Broadway Street,San Antonio,TX,78209-6216,(210) 828-4802,29.469971,-98.463164
McDonald's,McDonald's - Anacortes,1301 Commercial St,Anacortes,WA,98221-2139,(360) 293-7807,48.511301,-122.612157
McDonald's,McDonald's - Newcastle,3254 Hill Star Drive,Newcastle,OK,73065,(405) 387-5888,35.291479,-97.607594
McDonald's,McDonald's - San Antonio,25200 Interstate 10 W Lot 2,San Antonio,TX,78257,(210) 687-1232,29.676004,-98.634366
McDonald's,McDonald's - Little Rock,8820 Baseline Rd,Little Rock,AR,72209,(501) 565-7003,34.670564,-92.376906
McDonald's,McDonald's - Hollywood,1133 N La Brea Ave,Hollywood,CA,90038,(323) 876-8844,34.091675,-118.344559
McDonald's,McDonald's - Marysville,10510 Quil Ceda Blvd,Marysville,WA,98271,(360) 716-2964,48.090954,-122.186255
McDonald's,McDonald's - Kahului,155 Puunene Ave,Kahului,HI,96732-2403,(808) 871-2198,20.887603,-156.465045
McDonald's,McDonald's - Big Rapids,1020 S State St,Big Rapids,MI,49307-2254,(231) 796-3655,43.685862,-85.484248
McDonald's,McDonald's - Bayonne,537 Broadway,Bayonne,NJ,7002,(201) 858-9054,40.665562,-74.11721
McDonald's,McDonald's - Evans,4264 Washington Road,Evans,GA,30809,(706) 651-9292,33.533195,-82.125914
McDonald's,McDonald's - Williamsburg,329 2nd St,Williamsburg,VA,23185,(757) 220-0630,37.273076,-76.683198
McDonald's,McDonald's - Wyomissing,8th & Hill Ave,Wyomissing,PA,19610,(610) 372-2298,40.336586,-75.954262
McDonald's,McDonald's - Louisville,520 N 22nd,Louisville,KY,40203,(502) 775-5454,38.267331,-85.783496
McDonald's,McDonald's - New Castle,101 South Dupont Highway,New Castle,DE,19720,(302) 322-3798,39.665047,-75.605552
McDonald's,McDonald's - Columbia,2015 Bluff Road,Columbia,SC,29201,(803) 252-4727,33.95358,-80.99323
McDonald's,McDonald's - Carthage,2812 Hazel Ave,Carthage,MO,64836,(417) 359-5353,37.139789,-94.319054
McDonald's,McDonald's - Odessa,1901 County Road Fm 1882,Odessa,TX,79763,(432) 332-3481,31.817514,-102.380939
McDonald's,McDonald's - Hamden,2320 Dixwell Ave,Hamden,CT,6514,(203) 230-8116,41.373123,-72.917156
McDonald's,McDonald's - Half Moon Bay,100 N Cabrillo Hwy,Half Moon Bay,CA,94019-1609,(650) 726-1222,37.470356,-122.434441
McDonald's,McDonald's - Jackson,546 E 3rd St,Jackson,GA,30233,(770) 775-1566,33.294177,-83.960741
McDonald's,McDonald's - Oak Ridge,8000-G Market Place Drive,Oak Ridge,NC,27310,(336) 644-8951,36.172107,-79.98889
McDonald's,McDonald's - Pittsburg,3008 North Broadway,Pittsburg,KS,66762-2631,(620) 231-0560,37.437856,-94.704263
McDonald's,McDonald's - Racine,2100 Lathrop Ave,Racine,WI,53405-4135,(262) 554-1100,42.703697,-87.826356
McDonald's,McDonald's - League City,I-45 At Fm 646,League City,TX,77573,(281) 614-1968,29.466389,-95.087924
McDonald's,McDonald's - Huntington Park,2303 E Florence Ave,Huntington Park,CA,90255-5620,(323) 587-2449,33.975014,-118.231201
McDonald's,McDonald's - Lynnwood,14923 Hwy 99,Lynnwood,WA,98037-2315,(425) 743-3560,47.862703,-122.282586
McDonald's,McDonald's - Mission,804 S Shary Rd,Mission,TX,78572,(956) 583-2790,26.194476,-98.289113
McDonald's,McDonald's - Gadsden,101 Enterprise Drive,Gadsden,AL,35904,(256) 538-7580,33.997605,-86.09301
McDonald's,McDonald's - Medina,822 Hwy 55,Medina,MN,55340,(763) 478-2734,45.047102,-93.54308
McDonald's,McDonald's - Elgin,1165 N Mclean Blvd,Elgin,IL,60123,(847) 741-9090,42.061167,-88.314983
McDonald's,McDonald's - Eden Prairie,598 Prairie Center Dr,Eden Prairie,MN,55344-7917,(952) 943-8870,44.853519,-93.429887
McDonald's,McDonald's - Vestal,3136 Vestal Pky E,Vestal,NY,13850,(607) 798-7712,42.095181,-76.001091
McDonald's,McDonald's - Brockton,908 N Montello St,Brockton,MA,2301,(508) 588-9920,42.107845,-71.024803
McDonald's,McDonald's - Marina,267 Reservation Rd,Marina,CA,93933-3185,(831) 384-9004,36.685592,-121.794555
McDonald's,McDonald's - Indianapolis,6830 W 38th St,Indianapolis,IN,46254-3910,(317) 291-5600,39.824029,-86.280539
McDonald's,McDonald's - Baton Rouge,6910 Airline Hwy,Baton Rouge,LA,70805-4707,(225) 356-9328,30.488163,-91.121706
McDonald's,McDonald's - Memphis,5084 Summer Ave,Memphis,TN,38122-4408,(901) 682-8996,35.151328,-89.891472
McDonald's,McDonald's - Sabraton,1820 Sturges St,Sabraton,WV,26505,(304) 296-0508,39.622293,-79.923281
McDonald's,McDonald's - Lugoff,906 Hwy 1 S,Lugoff,SC,29078,(803) 438-6666,34.226513,-80.67901
McDonald's,McDonald's - Cottonwood,1129 Hwy 260,Cottonwood,AZ,86326,(928) 634-9622,34.719472,-112.001072
McDonald's,McDonald's - Union Gap,2326 S 1st St,Union Gap,WA,98903,(509) 248-4335,46.567401,-120.485124
McDonald's,McDonald's - Reno,735 S Meadows Pky,Reno,NV,89521,(775) 852-8088,39.439637,-119.756939
McDonald's,McDonald's - Youngstown,691 Mccartney Rd,Youngstown,OH,44505-5016,(330) 747-6474,41.090013,-80.590319
McDonald's,McDonald's - Cedar Park,1410 Cypress Creek Rd,Cedar Park,TX,78613,(512) 336-1999,30.482634,-97.831358
McDonald's,McDonald's - Corpus Christi,4031 Saratoga Blvd,Corpus Christi,TX,78415,(361) 855-0876,27.698509,-97.411427
McDonald's,McDonald's - Martinez,381 Fury'S Ferry Road,Martinez,GA,30907,(706) 860-0644,33.528822,-82.073215
McDonald's,McDonald's - Dayton,3918 Free Pike,Dayton,OH,45416-1212,(937) 278-1707,39.797639,-84.253246
McDonald's,McDonald's - Minneapolis,1100 University Ave Ne,Minneapolis,MN,55413-1222,(612) 379-4334,44.999115,-93.263824
McDonald's,McDonald's - White Sulphur Springs,38045 Midland Trail E,White Sulphur Springs,WV,24931,(304) 536-9353,37.773015,-80.355424
McDonald's,McDonald's - Chehalis,120 Kirkland Rd,Chehalis,WA,98532-8724,(360) 748-6922,46.604819,-122.904252
McDonald's,McDonald's - Toledo,1205 W Sylvania Ave,Toledo,OH,43612-1705,(419) 476-8946,41.692222,-83.570006
McDonald's,McDonald's - Oak Park,26160 Greenfield Rd,Oak Park,MI,48237,(248) 808-6756,42.483286,-83.20163
McDonald's,McDonald's - Anderson,2014 Scatterfield Rd,Anderson,IN,46013,(765) 649-4707,40.096637,-85.65171
McDonald's,McDonald's - Lenexa,15920 W 87th St Pky,Lenexa,KS,66215,(913) 599-4560,38.971499,-94.772752
McDonald's,McDonald's - Gilroy,8390 Arroyo Circle,Gilroy,CA,95020,(408) 847-5446,37.023616,-121.562484
McDonald's,McDonald's - Austin,1009 W Oakland Ave,Austin,MN,55912-2217,(507) 433-6030,43.666332,-92.986843
McDonald's,McDonald's - Hackensack,343 River St,Hackensack,NJ,7601,(201) 487-1347,40.888802,-74.039131
McDonald's,McDonald's - Corcoran,2003 Whitley Ave,Corcoran,CA,93212-2017,(559) 992-5833,36.097738,-119.572428
McDonald's,McDonald's - Corpus Christi,2021 Morgan Ave,Corpus Christi,TX,78405-1541,(361) 882-1411,27.777941,-97.412167
McDonald's,McDonald's - Jamaica,166-01 Baisley Boulevard,Jamaica,NY,11434,(718) 528-4219,40.680161,-73.77726
McDonald's,McDonald's - Royal Palm Beach,1400 Royal Palm Beach Boulevard,Royal Palm Beach,FL,33411,(561) 333-8866,26.709532,-80.228443
McDonald's,McDonald's - Middlesboro,3615 W Cumberland Ave,Middlesboro,KY,40965,(606) 248-5945,36.604739,-83.740488
McDonald's,McDonald's - Centreville,5633 Stone Rd,Centreville,VA,20120,(703) 815-0480,38.853195,-77.450062
McDonald's,McDonald's - Sarasota,6347 S Tamiami Trl,Sarasota,FL,34231,(941) 922-1064,27.261972,-82.52352
McDonald's,McDonald's - Cromwell,125 Berlin Rd,Cromwell,CT,6416,(860) 632-7260,41.604247,-72.707174
McDonald's,McDonald's - Clackamas,13470 Se Hwy 212,Clackamas,OR,97015,(503) 657-2855,45.409824,-122.525789
McDonald's,McDonald's - Gahanna,298 South Hamilton Road,Gahanna,OH,43230,(614) 475-2112,40.010647,-82.866626
McDonald's,McDonald's - Eureka,12 Hilltop Village Center Dr,Eureka,MO,63025-1185,(636) 938-7011,38.505955,-90.636354
McDonald's,McDonald's - Austin,2426 E Riverside,Austin,TX,78741-3035,(512) 444-9229,30.235731,-97.724067
McDonald's,McDonald's - Oldsmar,4085 Tampa Rd,Oldsmar,FL,34677,(813) 855-5016,28.035551,-82.652316
McDonald's,McDonald's - Hampstead,4225 Northwoods Trl,Hampstead,MD,21074,(443) 507-6666,39.595565,-76.845934
McDonald's,McDonald's - Brazil,907 E National Ave,Brazil,IN,47834-2705,(812) 448-1590,39.525736,-87.114756
McDonald's,McDonald's - Lake Bluff,28929 N Waukegan Rd,Lake Bluff,IL,60044,(847) 735-1088,42.281953,-87.879644
McDonald's,McDonald's - Yemassee,57 Frampton Dr,Yemassee,SC,29945,(843) 726-4766,32.633123,-80.876795
McDonald's,McDonald's - Rock Hill,1232 E Main St,Rock Hill,SC,29731,(803) 326-0550,34.914908,-81.003688
McDonald's,McDonald's - Tinley Park,15920 S Harlem,Tinley Park,IL,60477-1610,(708) 614-0843,41.601773,-87.795949
McDonald's,McDonald's - Edinburg,401 E Trenton,Edinburg,TX,78539,(956) 292-0161,26.26189,-98.168213
McDonald's,McDonald's - Bronx,86 E 167th St,Bronx,NY,10452,(718) 992-8642,40.835136,-73.919899
McDonald's,McDonald's - Katy,22148 Westheimer Pkwy,Katy,TX,77450,(281) 398-8400,29.734545,-95.753754
McDonald's,McDonald's - Hollywood,5530 S Sr 7,Hollywood,FL,33314,(954) 791-3852,26.052417,-80.206821
McDonald's,McDonald's - Lafayette,3201 Louisiana Ave,Lafayette,LA,70501,(337) 264-0479,30.264405,-91.993171
McDonald's,McDonald's - Wynantskill,65 Main Ave Rte 66,Wynantskill,NY,12198,(518) 283-2089,42.696889,-73.64686
McDonald's,McDonald's - Columbus,760 Bethel Rd,Columbus,OH,43214-1900,(614) 442-0033,40.06353,-83.039496
McDonald's,McDonald's - Leominster,302 N Main Street,Leominster,MA,1453,(978) 534-9762,42.542198,-71.760483
McDonald's,McDonald's - Tallahassee,3398 Capital Cir Ne,Tallahassee,FL,32308,(850) 385-1138,30.500051,-84.248093
McDonald's,McDonald's - Pinellas Park,5170 Park Blvd N,Pinellas Park,FL,33781-3414,(727) 544-7333,27.838784,-82.703379
McDonald's,McDonald's - Los Lunas,2250 Main Street Nw,Los Lunas,NM,87031,(505) 565-2107,34.817286,-106.763176
McDonald's,McDonald's - Carson City,Swc Hot Springs & College Pwky Wm 3408,Carson City,NV,89706,(775) 882-8044,39.187479,-119.757781
McDonald's,McDonald's - San Pedro,976 N Western Avenue,San Pedro,CA,90732,(310) 514-8616,33.751118,-118.308708
McDonald's,McDonald's - Hillsville,1877 Carrollton Pike,Hillsville,VA,24343,(276) 728-3384,36.74394,-80.775986
McDonald's,McDonald's - Valparaiso,2610 La Porte Ave,Valparaiso,IN,46383,(219) 548-5864,41.468017,-87.028993
McDonald's,McDonald's - West Covina,2501 South Azusa,West Covina,CA,91791,(626) 961-4828,34.031361,-117.91539
McDonald's,McDonald's - Chesapeake Beach,7925 Bayside Rd,Chesapeake Beach,MD,20732,(301) 855-4807,38.688587,-76.535592
McDonald's,McDonald's - Little Rock,14401 Arch St Pike,Little Rock,AR,72206,(501) 261-7776,34.618965,-92.314505
McDonald's,McDonald's - Erwin,529 Jonesborough Rd,Erwin,TN,37650,(423) 743-5821,36.150392,-82.417033
McDonald's,McDonald's - Chanhassen,90 Lake Dr E,Chanhassen,MN,55317-9319,(952) 934-8530,44.861148,-93.523631
McDonald's,McDonald's - Des Moines,1345 E Euclid,Des Moines,IA,50316-1259,(515) 262-4343,41.627324,-93.601428
McDonald's,McDonald's - Godfrey,5511 Godfrey Rd,Godfrey,IL,62035,(618) 466-5810,38.946904,-90.190229
McDonald's,McDonald's - Winnfield,103 Hwy 84 W,Winnfield,LA,71483,(318) 628-3134,31.925521,-92.652356
McDonald's,McDonald's - Fairmont,1000 Speedway Ave,Fairmont,WV,26554,(304) 366-5200,39.477252,-80.120529
McDonald's,McDonald's - Jefferson,2916 Jefferson Hwy,Jefferson,LA,70121-3706,(504) 833-3579,29.962518,-90.156317
McDonald's,McDonald's - New Britain,635 Hartford Road,New Britain,CT,06053-1526,(860) 521-9106,41.715673,-72.762565
McDonald's,McDonald's - Chicago,6231 N Broadway,Chicago,IL,60660-1902,(773) 743-1316,41.995575,-87.659997
McDonald's,McDonald's - Port Richey,8527 Us 19 N,Port Richey,FL,34668,(727) 848-3997,28.281591,-82.717366
McDonald's,McDonald's - Malone,3375 State Route 11,Malone,NY,12953,(518) 483-7520,44.848343,-74.313609
McDonald's,McDonald's - Washington,2328 Georgia Ave Nw,Washington,DC,20001,(202) 387-2111,38.920612,-77.022295
McDonald's,McDonald's - Coon Rapids,3080 Coon Rapids Blvd,Coon Rapids,MN,55433-3474,(763) 422-9218,45.174244,-93.346214
McDonald's,McDonald's - Monterey Park,950 W Floral Dr,Monterey Park,CA,91754-6203,(323) 262-1232,34.039829,-118.144348
McDonald's,McDonald's - Milford,120 S Milford Rd,Milford,MI,48381-2741,(248) 676-2450,42.581921,-83.611923
McDonald's,McDonald's - Gary,1527 W 5th Ave,Gary,IN,46402,(219) 885-2299,41.601627,-87.356171
McDonald's,McDonald's - Sloatsburg,Ny State Turnpike Mile Post 33 S,Sloatsburg,NY,10974,(845) 753-2073,41.153071,-74.189734
McDonald's,McDonald's - Bay City,5111 Mckinaw Road,Bay City,MI,48706,(989) 684-1214,43.592813,-83.991831
McDonald's,McDonald's - Alameda,715 Central Ave,Alameda,CA,94501-3818,(510) 865-0200,37.771774,-122.276077
McDonald's,McDonald's - University Place,3802 Bridgeport Way W,University Place,WA,98466-4416,(253) 565-0747,47.222105,-122.537484
McDonald's,McDonald's - Saginaw,5321 Blue Mound Rd,Saginaw,TX,76106,(817) 625-6441,32.840247,-97.343662
McDonald's,McDonald's - Edenton,310 Virginia Rd,Edenton,NC,27932,(252) 482-8072,36.07323,-76.611313
McDonald's,McDonald's - Hammond,3009 Hwy 190 W,Hammond,LA,70401,(985) 542-0568,30.503951,-90.496449
McDonald's,McDonald's - Liverpool,3869 Route 31,Liverpool,NY,13090,(315) 622-3534,43.185896,-76.246246
McDonald's,McDonald's - Pleasant Hill,1690 Contra Costa Blvd,Pleasant Hill,CA,94523,(925) 356-8818,37.953545,-122.0597
McDonald's,McDonald's - Kingston,1232 Ulster Ave,Kingston,NY,12401,(845) 336-2100,41.967094,-73.988571
McDonald's,McDonald's - Hendersonville,5775 Asheville Hwy,Hendersonville,NC,28791,(828) 684-3931,35.395655,-82.506315
McDonald's,McDonald's - Saginaw,7778 Gratiot Ave,Saginaw,MI,48609-5017,(989) 781-0910,43.416461,-84.067278
McDonald's,McDonald's - Layton,1155 N Hillfield Rd,Layton,UT,84041-4845,(801) 544-5393,41.076788,-111.974201
McDonald's,McDonald's - Cary,869 E Maynard Rd,Cary,NC,27511,(919) 467-3883,35.776461,-78.76474
McDonald's,McDonald's - Honolulu,2121 N Nimitz Hwy,Honolulu,HI,96819,(808) 832-0740,21.327114,-157.886055
McDonald's,McDonald's - Fresno,3237 W Shaw Ave,Fresno,CA,93711-3225,(559) 225-2870,36.807881,-119.849869
McDonald's,McDonald's - San Jose,163 Branham Ln,San Jose,CA,95136-2300,(408) 972-2168,37.266437,-121.832239
McDonald's,McDonald's - Beach Park,39082 N Sheridan Rd,Beach Park,IL,60099-3787,(847) 746-8430,42.429313,-87.826335
McDonald's,McDonald's - Rural Retreat,4153 Blacklick Rd,Rural Retreat,VA,24368,(276) 686-5562,36.91457,-81.272958
McDonald's,McDonald's - Waddy,1940 Waddy Road,Waddy,KY,40076,(502) 829-5050,38.151414,-85.069615
McDonald's,McDonald's - El Paso,9441 Alameda Ave,El Paso,TX,79907,(915) 859-4026,31.682848,-106.311586
McDonald's,McDonald's - Tampa,6013 E Dr Martin Luther,Tampa,FL,33619,(813) 621-5961,27.981066,-82.386834
McDonald's,McDonald's - Madison,8841 Madison Blvd,Madison,AL,35758,(256) 772-0099,34.677215,-86.748785
McDonald's,McDonald's - Portland,3208 Nw Yeon,Portland,OR,97210-1524,(503) 223-9235,45.545702,-122.706105
McDonald's,McDonald's - Rochester,1571 Ridge Rd E,Rochester,NY,14621,(585) 266-0109,43.199076,-77.575076
McDonald's,McDonald's - Gonzalez,1610 Highway 29s,Gonzalez,FL,32533,(850) 937-6771,30.578737,-87.294858
McDonald's,McDonald's - Redwood City,185 Chestnut St,Redwood City,CA,94063-2105,(650) 364-5316,37.479259,-122.224258
McDonald's,McDonald's - Granbury,1101 S Morgan,Granbury,TX,76048-2814,(817) 573-0206,32.432178,-97.793633
McDonald's,McDonald's - Colleyville,5609 Colleyville Blvd,Colleyville,TX,76034,(817) 656-4100,32.890322,-97.148681
McDonald's,McDonald's - Rosemont,6150 N River Rd,Rosemont,IL,60018,(847) 825-3100,41.990426,-87.860457
McDonald's,McDonald's - Tarboro,1500 Western Blvd,Tarboro,NC,27886,(252) 823-0966,35.902921,-77.562384
McDonald's,McDonald's - Prairie Du Chien,602 S Marquette Rd,Prairie Du Chien,WI,53821-2124,(608) 326-4415,43.045081,-91.140425
McDonald's,McDonald's - Leawood,4600 W 119th St,Leawood,KS,66209,(913) 339-9303,38.913476,-94.639159
McDonald's,McDonald's - Montgomery,2750 Taylor Rd,Montgomery,AL,36117,(334) 270-9878,32.339669,-86.180018
McDonald's,McDonald's - Miami,1020 W Flagler St,Miami,FL,33130,(305) 545-7788,25.773374,-80.211831
McDonald's,McDonald's - Spring Valley,106 Rt 59,Spring Valley,NY,10977,(845) 356-5520,41.106968,-74.035484
McDonald's,McDonald's - Jackson,2455 College Ave,Jackson,AL,36545-2458,(251) 246-5044,31.536281,-87.888885
McDonald's,McDonald's - Chandler,5900 W Chandler Blvd,Chandler,AZ,85226,(480) 961-3050,33.305794,-111.945084
McDonald's,McDonald's - Clayton,201 Chechero St,Clayton,GA,30525,(706) 782-5313,34.875579,-83.398982
McDonald's,McDonald's - Chicago,645 N Mcclurg Ct,Chicago,IL,60611-3000,(312) 944-5665,41.893979,-87.617628
McDonald's,McDonald's - Festus,515 S Truman,Festus,MO,63028,(636) 931-2797,38.215272,-90.388094
McDonald's,McDonald's - Memphis,1610 Sycamore View,Memphis,TN,38134-7310,(901) 383-8999,35.169445,-89.864897
McDonald's,McDonald's - Princeton,2001 W Broadway,Princeton,IN,47670-1084,(812) 385-5296,38.354779,-87.592073
McDonald's,McDonald's - Marietta,3010 Canton Rd,Marietta,GA,30066,(770) 428-1982,34.024632,-84.528221
McDonald's,McDonald's - Midlothian,13170 Midlothian Tpke,Midlothian,VA,23113,(804) 794-4925,37.503064,-77.641253
McDonald's,McDonald's - Centralia,500 E Hwy 22,Centralia,MO,65240,(573) 682-2683,39.218371,-92.133267
McDonald's,McDonald's - Chester,431 Carolina Ave,Chester,WV,26034-1129,(304) 387-1090,40.613129,-80.563522
McDonald's,McDonald's - Pine Bluff,3610 Camden Rd,Pine Bluff,AR,71603,(870) 879-1257,34.192959,-92.061474
McDonald's,McDonald's - Lincoln,2641 Ticonderoga Drive,Lincoln,NE,68521,(402) 435-5444,40.858632,-96.682659
McDonald's,McDonald's - Jonesville,I 77 & Nc 67,Jonesville,NC,28642,(336) 526-4308,36.239631,-80.820957
McDonald's,McDonald's - Hartsdale,407 N Central Park Ave,Hartsdale,NY,10530,(914) 948-5507,41.031704,-73.788023
McDonald's,McDonald's - Cambridge,2351 E Wheeling Ave,Cambridge,OH,43725-2164,(740) 432-7682,40.029194,-81.565575
McDonald's,McDonald's - Morgantown,19 Commerce Dr,Morgantown,WV,26501,(304) 296-8222,39.63043,-79.984343
McDonald's,McDonald's - Daingerfield,607 Linda Dr,Daingerfield,TX,75638,(903) 645-2933,33.028849,-94.72078
McDonald's,McDonald's - Clarksville,3078 Wilma Rudolph Blvd,Clarksville,TN,37040-5005,(931) 647-8626,36.596285,-87.287348
McDonald's,McDonald's - Westland,38418 Ford Rd,Westland,MI,48185,(734) 729-0790,42.324303,-83.418823
McDonald's,McDonald's - Las Vegas,7662 W Lake Mead,Las Vegas,NV,89128,(702) 228-2203,36.196608,-115.261787
McDonald's,McDonald's - Kerrville,1308 Junction Hwy,Kerrville,TX,78028,(830) 895-7707,30.062794,-99.171041
McDonald's,McDonald's - Demopolis,1111 Walnut St,Demopolis,AL,36732,(334) 289-3069,32.503738,-87.837955
McDonald's,McDonald's - Gardena,850 W Rosecrans Ave,Gardena,CA,90247,(310) 538-3279,33.901595,-118.290919
McDonald's,McDonald's - Las Vegas,5200 S Fort Apache,Las Vegas,NV,89148,(702) 367-3250,36.094154,-115.293885
McDonald's,McDonald's - Louisville,3820 Ruckriegel Parkway,Louisville,KY,40299,(502) 261-9939,38.188963,-85.565686
McDonald's,McDonald's - Oklahoma City,7401 S Choctaw Road,Oklahoma City,OK,73020,(405) 391-3305,35.39538,-97.266335
McDonald's,McDonald's - Cinnaminson,100 Rt 130 N,Cinnaminson,NJ,8077,(856) 303-2280,39.988769,-75.007545
McDonald's,McDonald's - Trenton,2038 Highway 45 Bypass,Trenton,TN,38382,(731) 855-9559,35.967252,-88.931136
McDonald's,McDonald's - Hartford,170-176 Washington St,Hartford,CT,6106,(860) 560-2292,41.757247,-72.681945
McDonald's,McDonald's - Chicago,4334 West 26th Street,Chicago,IL,60623,(773) 762-9211,41.844364,-87.732257
McDonald's,McDonald's - Goodyear,1100 N Estrella Pkwy  Wm  5369,Goodyear,AZ,85339,(623) 932-0131,33.459406,-112.395282
McDonald's,McDonald's - Decatur,4030 East Boyd Road,Decatur,IL,62521,(217) 872-1974,39.907545,-88.895524
McDonald's,McDonald's - Sinton,13888 Fm 1945,Sinton,TX,78387,(361) 364-9230,28.012437,-97.532587
McDonald's,McDonald's - Atlanta,443 Moreland Ave,Atlanta,GA,30316,(404) 635-0700,33.741796,-84.349587
McDonald's,McDonald's - Lubbock,4220 98th Street,Lubbock,TX,79423,(806) 698-6734,33.504901,-101.903096
McDonald's,McDonald's - Phoenix,1532 N 51st Ave,Phoenix,AZ,85043-1777,(602) 484-0240,33.465237,-112.169735
McDonald's,McDonald's - Milwaukee,617 W Oklahoma,Milwaukee,WI,53215-4717,(414) 482-3336,42.988038,-87.919835
McDonald's,McDonald's - Warren,30837 Schoenherr Road,Warren,MI,48093-6857,(586) 751-0270,42.52066,-82.988815
McDonald's,McDonald's - Knightdale,7141 Knightdale Blvd,Knightdale,NC,27545,(919) 266-6700,35.798852,-78.488574
McDonald's,McDonald's - Warrensburg,311 E Young,Warrensburg,MO,64093-1209,(660) 747-2023,38.771439,-93.734173
McDonald's,McDonald's - Staten Island,3267 Richmond Ave,Staten Island,NY,10312,(718) 948-3800,40.559681,-74.168177
McDonald's,McDonald's - Lilburn,3015 Five Forks Trickum Rd,Lilburn,GA,30047,(770) 979-5332,33.886429,-84.060989
McDonald's,McDonald's - Angola,3021 W Maumee,Angola,IN,46703,(260) 665-2386,41.634471,-85.043885
McDonald's,McDonald's - Houston,10415 Bissonnet Street,Houston,TX,77099,(281) 495-0560,29.6741,-95.561339
McDonald's,McDonald's - Franklin,1299 Hwy 96 E,Franklin,TN,37064,(615) 790-7019,35.915952,-86.829192
McDonald's,McDonald's - New Orleans,3025 Elysian Fields Ave,New Orleans,LA,70122-3626,(504) 948-8666,29.98955,-90.05784
McDonald's,McDonald's - Pasadena,1300 S Richey,Pasadena,TX,77502-1100,(713) 472-5313,29.690287,-95.220145
McDonald's,McDonald's - Waco,4330 Franklin Avenue,Waco,TX,76710,(254) 776-8406,31.522854,-97.167729
McDonald's,McDonald's - Gordonsville,11445 James Madison Hwy,Gordonsville,VA,22942,(434) 589-6753,37.973692,-78.215496
McDonald's,McDonald's - O'Fallon,1001 N Main St,O'Fallon,MO,63366,(636) 978-3649,38.822015,-90.70025
McDonald's,McDonald's - Roswell,1804 S Main St,Roswell,NM,88203,(575) 625-8799,33.370233,-104.523719
McDonald's,McDonald's - Orange Park,5000 Us Highway 17,Orange Park,FL,32003,(904) 278-8481,30.102837,-81.711679
McDonald's,McDonald's - Mundelein,450 Town Line Rd,Mundelein,IL,60060,(847) 949-1590,42.240558,-87.994897
McDonald's,McDonald's - Niles,2796 Robbins Ave,Niles,OH,44446-4283,(330) 544-3077,41.181788,-80.718408
McDonald's,McDonald's - Sacramento,2517 Del Paso Blvd,Sacramento,CA,95815-2510,(916) 927-1459,38.612657,-121.446978
McDonald's,McDonald's - Fairfield,699 Beck Ave,Fairfield,CA,94533,(707) 421-9137,38.249042,-122.066985
McDonald's,McDonald's - Waverly,1203 4th Stsw,Waverly,IA,50677,(319) 352-6977,42.713566,-92.474982
McDonald's,McDonald's - Temple City,9831 E Las Tunas Dr,Temple City,CA,91780-2209,(626) 292-1711,34.107838,-118.055527
McDonald's,McDonald's - Deerfield,50 S Waukegan Rd,Deerfield,IL,60015-5216,(847) 945-2112,42.154182,-87.837123
McDonald's,McDonald's - Des Plaines,1101 Oakton Street,Des Plaines,IL,60018,(847) 297-5630,42.023469,-87.897032
McDonald's,McDonald's - Lakeland,1715 Bartow Road,Lakeland,FL,33801,(863) 688-9200,28.022972,-81.924537
McDonald's,McDonald's - Sunnyvale,556 E El Camino Real,Sunnyvale,CA,94086,(408) 736-5091,37.362938,-122.027153
McDonald's,McDonald's - North Syracuse,3806 Brewerton Rd,North Syracuse,NY,13212,(315) 458-1600,43.11894,-76.14312
McDonald's,McDonald's - Shinnston,Route 19,Shinnston,WV,26431,(304) 592-5272,39.376901,-80.310428
McDonald's,McDonald's - Mcalester,Mile Marker 66 Indian Nation Turnpike,Mcalester,OK,74501,(918) 426-4788,34.907192,-95.825583
McDonald's,McDonald's - Hope Hull,40 Wasden Rd,Hope Hull,AL,36043,(334) 280-4790,32.270503,-86.357269
McDonald's,McDonald's - Topeka,3530 Nw 46th St,Topeka,KS,66608,(785) 246-1555,39.129988,-95.716446
McDonald's,McDonald's - Conway,450 Hwy 65 N,Conway,AR,72032-3507,(501) 329-4040,35.112868,-92.431436
McDonald's,McDonald's - Rensselaer,310 Troy Rd,Rensselaer,NY,12144,(518) 283-3165,42.645272,-73.697511
McDonald's,McDonald's - Bonita Springs,27996 Oakland Dr,Bonita Springs,FL,34135,(239) 498-8838,26.332049,-81.752986
McDonald's,McDonald's - Colchester,79 Heineberg Rd,Colchester,VT,5446,(802) 863-9707,44.535276,-73.248101
McDonald's,McDonald's - Charlevoix,1440 Bridge St,Charlevoix,MI,49720,(231) 547-5710,45.304351,-85.259447
McDonald's,McDonald's - Grand Rapids,1240 S Division,Grand Rapids,MI,49508,(616) 452-0266,42.940308,-85.666804
McDonald's,McDonald's - Raleigh,601 Corporate Center Drive,Raleigh,NC,27607,(919) 233-4144,35.790036,-78.740696
McDonald's,McDonald's - Danville,3195 North Vermilion Street,Danville,IL,61832-1312,(217) 446-0043,40.174751,-87.629617
McDonald's,McDonald's - Washington,1901 9th St Ne,Washington,DC,20018,(202) 629-2626,38.915887,-76.993363
McDonald's,McDonald's - Ellicott City,9303 Baltimore National Pike,Ellicott City,MD,21042,(410) 465-9487,39.277026,-76.832644
McDonald's,McDonald's - Miami,6700 Bird Rd,Miami,FL,33155,(305) 667-3551,25.733056,-80.303266
McDonald's,McDonald's - Billerica,273 Boston Rd,Billerica,MA,1821,(978) 667-9174,42.574699,-71.282127
McDonald's,McDonald's - Middletown,1301 S Breiel Blvd,Middletown,OH,45044-6205,(513) 423-5801,39.500732,-84.354913
McDonald's,McDonald's - San Bernardino,4155 University Pkwy,San Bernardino,CA,92407-4699,(909) 880-8418,34.166071,-117.332081
McDonald's,McDonald's - Newton,726 1st Avenue E,Newton,IA,50208-3306,(641) 792-1205,41.699772,-93.04468
McDonald's,McDonald's - Camp Pendleton,430314 Brown St,Camp Pendleton,CA,92055,(760) 237-3723,33.346482,-117.411723
McDonald's,McDonald's - Williamstown,10 S Blackhorse Pike,Williamstown,NJ,8094,(856) 629-9450,39.689222,-74.991957
McDonald's,McDonald's - Dunedin,2618 Bayshore Blvd,Dunedin,FL,34698,(727) 733-7271,28.050495,-82.780246
McDonald's,McDonald's - Merrick,1813 Merrick Rd,Merrick,NY,11566,(516) 868-4446,40.653885,-73.555611
McDonald's,McDonald's - Mattoon,103 Dettro Dr,Mattoon,IL,61938,(217) 235-6438,39.483537,-88.336777
McDonald's,McDonald's - Alexandria,6021 Old Boyce Rd,Alexandria,LA,71303,(318) 442-7414,31.344644,-92.519456
McDonald's,McDonald's - Flower Mound,3601 Fm 407,Flower Mound,TX,75077,(972) 874-2368,33.071508,-97.085237
McDonald's,McDonald's - West Valley City,3200 S 5600 W,West Valley City,UT,84128,(801) 963-1046,40.701762,-112.027278
McDonald's,McDonald's - Carol Stream,355 S Schmale Rd,Carol Stream,IL,60188,(630) 221-0536,41.894067,-88.102416
McDonald's,McDonald's - Zephyrhills,Us Hwy 301 & Green Slope (W*M #706),Zephyrhills,FL,33541,(813) 782-2060,28.269352,-82.190895
McDonald's,McDonald's - Montgomery,2681 Zelda Road,Montgomery,AL,36107-3143,(334) 263-9596,32.364482,-86.268218
McDonald's,McDonald's - Max Meadows,Rt 2-Box 428,Max Meadows,VA,24360,(276) 637-6339,36.947422,-80.948734
McDonald's,McDonald's - Milford,990 Lila Ave,Milford,OH,45150-1683,(513) 248-9328,39.173582,-84.27703
McDonald's,McDonald's - Savannah,600 E Derenne Ave,Savannah,GA,31405,(912) 352-3481,32.026115,-81.098525
McDonald's,McDonald's - Rockford,6995 E Riverside Blvd,Rockford,IL,61114-4431,(815) 282-6142,42.318269,-88.9804
McDonald's,McDonald's - Dublin,6830 Perimeter Loop Rd,Dublin,OH,43017,(614) 799-0065,40.103746,-83.159305
McDonald's,McDonald's - Holyoke,285 Maple St,Holyoke,MA,1040,(413) 534-0228,42.205811,-72.610596
McDonald's,McDonald's - Charles City,506 Allison Street,Charles City,IA,50616-3709,(641) 228-1020,43.062215,-92.674821
McDonald's,McDonald's - Country Club Hills,4239 W 167th Street,Country Club Hills,IL,60478,(708) 206-1035,41.585672,-87.719966
McDonald's,McDonald's - Jacksonville,9571 Argyle Forest Blvd,Jacksonville,FL,32222,(904) 779-6780,30.196345,-81.825657
McDonald's,McDonald's - Chadron,1180 W Hwy 20,Chadron,NE,69337,(308) 432-3998,42.828802,-103.016092
McDonald's,McDonald's - Columbia,2911 Two Notch Rd,Columbia,SC,29204,(803) 254-3738,34.035581,-81.004447
McDonald's,McDonald's - Remington,4255 Us Hwy 24 W,Remington,IN,47977,(219) 261-2589,40.765342,-87.126973
McDonald's,McDonald's - Carmel,750 E Carmel Dr,Carmel,IN,46033,(317) 846-9776,39.962448,-86.114367
McDonald's,McDonald's - St. Louis,7171 Natural Bridge Rd,St. Louis,MO,63121,(314) 381-3295,38.700575,-90.290743
McDonald's,McDonald's - Indianapolis,2551 Emerson Ave,Indianapolis,IN,46218,(317) 541-1364,39.80497,-86.082523
McDonald's,McDonald's - Hayes,2413 George Washington Memorial Hwy,Hayes,VA,23072,(804) 642-5117,37.276374,-76.499339
McDonald's,McDonald's - Northport,13516 Hwy 43 N,Northport,AL,35475,(205) 330-2547,33.304155,-87.601478
McDonald's,McDonald's - Beaumont,190 N I 10,Beaumont,TX,77702-2111,(409) 835-3183,30.082047,-94.134954
McDonald's,McDonald's - Philadelphia,8500 Henry Ave,Philadelphia,PA,19128,(215) 487-0541,40.063817,-75.238855
McDonald's,McDonald's - Bronx,597-99 Grand Concourse,Bronx,NY,10451,(718) 402-8608,40.819809,-73.927055
McDonald's,McDonald's - Knoxville,1406 S Lincoln,Knoxville,IA,50138-3425,(641) 828-8444,41.30743,-93.110151
McDonald's,McDonald's - Davie,4492 Weston Rd,Davie,FL,33331,(954) 385-3828,26.064214,-80.359969
McDonald's,McDonald's - North Las Vegas,911 East Cheyenne Avenue,North Las Vegas,NV,89030,(702) 639-0801,36.217298,-115.128382
McDonald's,McDonald's - Whitesburg,709 Cumberland Rd,Whitesburg,KY,41858,(606) 633-9775,37.11064,-82.803947
McDonald's,McDonald's - Arcadia,400 S Baldwin Avenue,Arcadia,CA,91007,(626) 462-9662,34.135239,-118.049797
McDonald's,McDonald's - Charleston,333 Folly Road,Charleston,SC,29412,(843) 795-7720,32.759384,-79.974656
McDonald's,McDonald's - Columbus,3095 N High St,Columbus,OH,43202-1109,(614) 263-1586,40.025344,-83.014642
McDonald's,McDonald's - Emmitsburg,517 E Main Street,Emmitsburg,MD,21727,(301) 447-3663,39.703398,-77.316807
McDonald's,McDonald's - Pleasanton,4501 Rosewood Dr,Pleasanton,CA,94588,(925) 463-3503,37.698018,-121.887415
McDonald's,McDonald's - Philadelphia,1675 S Christopher Columbus Blvd,Philadelphia,PA,19148,(215) 468-6770,39.926222,-75.141272
McDonald's,McDonald's - Lumberton,2680 Roberts Ave,Lumberton,NC,28358,(910) 674-4512,34.643405,-79.00993
McDonald's,McDonald's - Lafayette,399 N Hwy 287,Lafayette,CO,80026,(303) 926-8811,40.001399,-105.103748
McDonald's,McDonald's - Springfield,6219 Rolling Rd,Springfield,VA,22152,(703) 451-7645,38.781669,-77.234225
McDonald's,McDonald's - Inver Grove Heights,3075 80th St E,Inver Grove Heights,MN,55076,(651) 306-1378,44.834521,-93.042676
McDonald's,McDonald's - Oscoda,5050 N Huron Rd,Oscoda,MI,48750,(989) 739-3111,44.426574,-83.32964
McDonald's,McDonald's - Homer Glen,14298 S Bell Rd,Homer Glen,IL,60491,(708) 301-2332,41.629739,-87.93157
McDonald's,McDonald's - Clarkesville,502 Washington Street,Clarkesville,GA,30523,(706) 839-1856,34.604275,-83.519485
McDonald's,McDonald's - Fair Haven,22 Washington Street Ext,Fair Haven,VT,5743,(802) 265-2028,43.604287,-73.275914
McDonald's,McDonald's - Lakeland,2835 S Florida Ave,Lakeland,FL,33803,(863) 682-1688,28.011547,-81.957398
McDonald's,McDonald's - Crawfordville,2605 Crawfordville Hwy,Crawfordville,FL,32327-2168,(850) 926-9270,30.194321,-84.370565
McDonald's,McDonald's - Tempe,1429 W Baseline,Tempe,AZ,85283,(480) 897-3512,33.377772,-111.961841
McDonald's,McDonald's - Greenville,1237 Sweitzer Rd,Greenville,OH,45331,(937) 548-5652,40.082316,-84.63361
McDonald's,McDonald's - Sullivan,11 W Jackson,Sullivan,IL,61951-1420,(217) 728-2341,39.600554,-88.607963
McDonald's,McDonald's - Los Angeles,5015 W Slauson Ave,Los Angeles,CA,90056,(323) 299-0974,33.987907,-118.365196
McDonald's,McDonald's - Oglesby,115 N Lewis Ave,Oglesby,IL,61348-9772,(815) 883-8989,41.296136,-89.078543
McDonald's,McDonald's - Downingtown,227 E Lincoln Hwy,Downingtown,PA,19335,(610) 269-1992,40.007621,-75.700651
McDonald's,McDonald's - Blythe,191 S Lovekin Blvd,Blythe,CA,92225-2504,(760) 922-5938,33.608684,-114.605914
McDonald's,McDonald's - Columbia,5485 Harpers Farm Road,Columbia,MD,21044-1107,(410) 730-5571,39.221893,-76.8893
McDonald's,McDonald's - Murfreesboro,2180 Old Fort Pky,Murfreesboro,TN,37130,(615) 893-3036,35.847905,-86.429987
McDonald's,McDonald's - Clinton,1607 East Ohio Street,Clinton,MO,64735,(660) 885-4525,38.366684,-93.749858
McDonald's,McDonald's - Kearns,5400 S 3900 W,Kearns,UT,84118,(801) 969-1460,40.653412,-111.984314
McDonald's,McDonald's - Deridder,425 N Pine Street,Deridder,LA,70634,(337) 462-1555,30.85188,-93.289454
McDonald's,McDonald's - Riverton,2002 W 12600 S,Riverton,UT,84065,(801) 254-3327,40.522767,-111.944808
McDonald's,McDonald's - Hempstead,2100 Fm 1488,Hempstead,TX,77445,(979) 826-9884,30.108171,-96.046681
McDonald's,McDonald's - Johnstown,530 Gallaria Dr,Johnstown,PA,15904,(814) 266-7757,40.297312,-78.834841
McDonald's,McDonald's - Sisters,1001 Railway Avenue,Sisters,OR,97759,(541) 549-6080,44.297825,-121.561872
McDonald's,McDonald's - Zillah,820 Zillah West Rd,Zillah,WA,98953-9542,(509) 829-5005,46.40418,-120.276259
McDonald's,McDonald's - Brooklyn,1133 Eastern Parkway,Brooklyn,NY,11213,(718) 493-0800,40.669163,-73.930779
McDonald's,McDonald's - Austin,13813 Burnet Rd,Austin,TX,78727,(512) 244-2996,30.439289,-97.697683
McDonald's,McDonald's - Parker,990 W Riverside Drive,Parker,AZ,85344,(928) 669-8872,34.154503,-114.277999
McDonald's,McDonald's - Brighton,895 Kuner Rd,Brighton,CO,80601-2857,(303) 659-6602,39.972759,-104.828131
McDonald's,McDonald's - Batesville,1220 S Saint Louis,Batesville,AR,72501,(870) 793-1130,35.767181,-91.641699
McDonald's,McDonald's - Louisville,3005 Fern Valley Rd,Louisville,KY,40213-3521,(502) 966-4749,38.157593,-85.708375
McDonald's,McDonald's - Holdrege,410 West 4th Avenue,Holdrege,NE,68949,(308) 995-5066,40.438117,-99.385434
McDonald's,McDonald's - Pampa,1201 N Hobart,Pampa,TX,79065,(806) 665-5891,35.545109,-100.972415
McDonald's,McDonald's - Dresden,8762 Hwy 22,Dresden,TN,38225,(731) 364-5761,36.278166,-88.712702
McDonald's,McDonald's - Topeka,3117 S Topeka Ave,Topeka,KS,66611-2124,(785) 266-4770,39.0113,-95.688306
McDonald's,McDonald's - Tucson,4960 W Ajo Hwy,Tucson,AZ,85757,(520) 908-8696,32.171993,-111.071094
McDonald's,McDonald's - Cody,2005 17th St,Cody,WY,82414-4718,(307) 587-5900,44.516224,-109.054124
McDonald's,McDonald's - Reno,305 E Plumb Ln,Reno,NV,89502,(775) 322-3773,39.506074,-119.800247
McDonald's,McDonald's - Seattle,6305 Martin Luther King Jr Way S,Seattle,WA,98118,(206) 725-0302,47.545613,-122.285898
McDonald's,McDonald's - Rochester,45 Jay Scutti Blvd,Rochester,NY,14623,(585) 292-0060,43.088391,-77.630481
McDonald's,McDonald's - Indianapolis,9833 Fall Creek Rd,Indianapolis,IN,46256,(317) 849-3011,39.899014,-85.994629
McDonald's,McDonald's - Almont,894 N Van Dyke,Almont,MI,48003,(810) 798-2124,42.929111,-83.050133
McDonald's,McDonald's - Avon,250 East Main St,Avon,NY,14414,(585) 226-6770,42.910756,-77.735061
McDonald's,McDonald's - Honolulu,2915 E Manoa Rd,Honolulu,HI,96822,(808) 988-2219,21.309661,-157.809588
McDonald's,McDonald's - Parsons,301 N 16th,Parsons,KS,67357,(620) 421-0244,37.342827,-95.258812
McDonald's,McDonald's - St. Petersburg,925 62nd Ave N,St. Petersburg,FL,33702,(727) 525-9083,27.828919,-82.647847
McDonald's,McDonald's - Desoto,909 N Beckley Ave,Desoto,TX,75115-4207,(972) 228-9220,32.605138,-96.823923
McDonald's,McDonald's - Yonkers,1200 Nepperhan Ave,Yonkers,NY,10703,(914) 963-6830,40.964672,-73.871956
McDonald's,McDonald's - San Antonio,1200 Se Military Dr,San Antonio,TX,78214-2851,(210) 927-9227,29.352807,-98.479785
McDonald's,McDonald's - Baton Rouge,6006 Plank Road,Baton Rouge,LA,70805-1324,(225) 355-9150,30.504744,-91.150806
McDonald's,McDonald's - Piedmont,111 Us Hwy 278 Byp E,Piedmont,AL,36272,(256) 447-6363,33.932534,-85.612024
McDonald's,McDonald's - Jefferson,109 S Walcott,Jefferson,TX,75657,(903) 665-6120,32.760604,-94.35546
McDonald's,McDonald's - Pompano Beach,320 Nw 24th Street,Pompano Beach,FL,33060,(954) 784-0440,26.260086,-80.127606
McDonald's,McDonald's - Edgewood,6 Sperti Drive,Edgewood,KY,41017,(859) 331-5094,39.024866,-84.535289
McDonald's,McDonald's - Lebec,5852 Dennis Mccarthy Dr,Lebec,CA,93243,(661) 858-2127,34.98439,-118.947813
McDonald's,McDonald's - Danville,801 E Main St,Danville,IN,46122,(317) 745-4440,39.757975,-86.508942
McDonald's,McDonald's - Keaau,16-565 Old Volcano Road,Keaau,HI,96749,(808) 966-8812,19.622084,-155.039268
McDonald's,McDonald's - Peyton,7255 N Meridian Road,Peyton,CO,80831,(719) 494-8498,38.937492,-104.610176
McDonald's,McDonald's - Geneseo,1022 Oakwood Dr,Geneseo,IL,61254,(309) 944-5040,41.439589,-90.153638
McDonald's,McDonald's - Lincoln,290 G St,Lincoln,CA,95648,(916) 645-9757,38.88897,-121.293043
McDonald's,McDonald's - Dothan,2101 Ross Clark Cir,Dothan,AL,36301,(334) 794-0221,31.189304,-85.397898
McDonald's,McDonald's - Bartow,1470 N Broadway,Bartow,FL,33830,(863) 533-4003,27.908117,-81.842888
McDonald's,McDonald's - Goshen,18423 Us 20,Goshen,IN,46528,(574) 296-1088,41.668181,-85.820132
McDonald's,McDonald's - Honolulu,848 Ala Lilikoi St,Honolulu,HI,96818,(808) 831-4820,21.345912,-157.913406
McDonald's,McDonald's - Saint Louis,9131 W Florissant,Saint Louis,MO,63136-1420,(314) 524-4366,38.73552,-90.278493
McDonald's,McDonald's - Los Angeles,1625 W Wilshire Blvd,Los Angeles,CA,90017,(213) 483-8702,34.05596,-118.270819
McDonald's,McDonald's - Marion,253 Tippy Ditch,Marion,IN,46952,(765) 662-0502,40.554328,-85.548951
McDonald's,McDonald's - Niles,7969 N Milwaukee Ave,Niles,IL,60648,(847) 965-2391,42.025813,-87.813292
McDonald's,McDonald's - Sacramento,1721 Howe Ave,Sacramento,CA,95825-2209,(916) 922-2774,38.59673,-121.41585
McDonald's,McDonald's - Granger,12880 St Rd 23,Granger,IN,46530,(574) 271-1800,41.752813,-86.119376
McDonald's,McDonald's - St. John,9769 Wicker Ave,St. John,IN,46373,(219) 365-3932,41.441433,-87.469315
McDonald's,McDonald's - Wadsworth,Nec Us 41 & Wadsworth Rd- Sto,Wadsworth,IL,60083,(847) 623-8334,42.429592,-87.937395
McDonald's,McDonald's - Aberdeen,1615 6th Ave Se,Aberdeen,SD,57401-5025,(605) 225-4275,45.45978,-98.463756
McDonald's,McDonald's - Rochester,820 Culver Rd,Rochester,NY,14609,(585) 288-1182,43.160083,-77.565792
McDonald's,McDonald's - Rockford,4623 State St,Rockford,IL,61108,(815) 397-4827,42.263095,-89.025482
McDonald's,McDonald's - Albuquerque,1523 4th St South,Albuquerque,NM,87102,(505) 842-0276,35.070694,-106.65464
McDonald's,McDonald's - Binghamton,704 Front Street,Binghamton,NY,13905,(607) 722-7412,42.126007,-75.907829
McDonald's,McDonald's - Hermosa Beach,1107 Pacific Coast Hwy,Hermosa Beach,CA,90254,(310) 798-2832,33.863236,-118.392885
McDonald's,McDonald's - Nappanee,1540 E Market,Nappanee,IN,46550-2300,(574) 773-3511,41.443035,-85.984625
McDonald's,McDonald's - Cleburne,2206 N Main,Cleburne,TX,76031,(817) 202-9013,32.379644,-97.392453
McDonald's,McDonald's - Hinesville,203 W Oglethorpe Highway,Hinesville,GA,31313,(912) 368-3330,31.845823,-81.593223
McDonald's,McDonald's - Lacey,4640 Whitman Ln Se,Lacey,WA,98513,(360) 412-0544,46.996011,-122.826834
McDonald's,McDonald's - Inman,11961 Ashville Hwy,Inman,SC,29349,(864) 472-4300,35.041472,-82.089572
McDonald's,McDonald's - Sommerville,14 Mcgrath Hwy,Sommerville,MA,2143,(617) 666-9666,42.373703,-71.08284
McDonald's,McDonald's - Bridgewater,222 Broad Street,Bridgewater,MA,2324,(508) 697-9568,41.996223,-70.972534
McDonald's,McDonald's - Huntsville,2600 N Memorial Pky,Huntsville,AL,35810,(256) 852-5730,34.757968,-86.5919
McDonald's,McDonald's - Plover,2601 Plover Road,Plover,WI,54467,(715) 341-3736,44.453112,-89.543134
McDonald's,McDonald's - Baton Rouge,14985 Airline Hwy,Baton Rouge,LA,70817,(225) 753-3535,30.360007,-91.008344
McDonald's,McDonald's - Tempe,3218 S Mcclintock Rd,Tempe,AZ,85282-5630,(480) 839-5775,33.394541,-111.909527
McDonald's,McDonald's - Gardena,1419 W Redondo Beach Blvd,Gardena,CA,90247-3310,(310) 324-8619,33.891582,-118.301125
McDonald's,McDonald's - Chicago,36 W Randolph,Chicago,IL,60601-3516,(312) 759-2128,41.884627,-87.62929
McDonald's,McDonald's - Fort Myers,8961 College Pky,Fort Myers,FL,33919,(239) 482-2930,26.556032,-81.903654
McDonald's,McDonald's - Keller,2001 Rufe Snow Dr,Keller,TX,76248-5634,(817) 581-1743,32.898577,-97.237969
McDonald's,McDonald's - Gastonia,2115 Union Road,Gastonia,NC,28052,(704) 852-3861,35.233236,-81.170375
McDonald's,McDonald's - Dallas,5934 Abrams Rd,Dallas,TX,75231-8002,(214) 272-3748,32.857425,-96.748227
McDonald's,McDonald's - Santa Maria,1710 S Broadway,Santa Maria,CA,93458,(805) 922-6111,34.929667,-120.43543
McDonald's,McDonald's - Chicago,6740 N Clark,Chicago,IL,60626-3211,(773) 743-6932,42.004916,-87.67318
McDonald's,McDonald's - Melbourne,25 W Hibiscus Blvd,Melbourne,FL,32901,(321) 727-1403,28.084596,-80.622757
McDonald's,McDonald's - Elwood,7340 W State Road 28,Elwood,IN,46036,(765) 552-0243,40.277662,-85.810587
McDonald's,McDonald's - Niceville,1090 E John Sims Pkwy,Niceville,FL,32578,(850) 678-1844,30.517142,-86.468533
McDonald's,McDonald's - Brooklyn,1883 Atlantic Avenue,Brooklyn,NY,11207,(718) 953-5864,40.677324,-73.922554
McDonald's,McDonald's - Houston,530 Maxey Road,Houston,TX,77013,(713) 451-5516,29.785627,-95.21934
McDonald's,McDonald's - Miami,1 Miad Terminal J,Miami,FL,33122,(305) 876-0980,25.792718,-80.27542
McDonald's,McDonald's - Sayre,461 N Keystone Avenue,Sayre,PA,18840,(570) 888-0291,41.994183,-76.530016
McDonald's,McDonald's - Santa Clarita,18850 Soledad Canyon Rd,Santa Clarita,CA,91351-3772,(661) 252-1480,34.415405,-118.464493
McDonald's,McDonald's - Oklahoma City,8001 Nw Hwy,Oklahoma City,OK,73132,(405) 721-8000,35.566518,-97.656699
McDonald's,McDonald's - Cleveland,3211 Clark Ave,Cleveland,OH,44109-1147,(216) 651-6734,41.469532,-81.704819
McDonald's,McDonald's - Center Point,698 Grain Lane,Center Point,IA,52213,(319) 849-1325,42.172763,-91.777465
McDonald's,McDonald's - Saint Petersburg,4145 49th St N,Saint Petersburg,FL,33709-5735,(727) 525-0944,27.809842,-82.699504
McDonald's,McDonald's - Anoka,720 W Main St,Anoka,MN,55303-1581,(763) 427-8650,45.207561,-93.406586
McDonald's,McDonald's - Lawrenceville,2370 Buford Drive Ne,Lawrenceville,GA,30043,(770) 339-0111,34.036275,-83.988891
McDonald's,McDonald's - Saginaw,3700 E Genesee St,Saginaw,MI,48601-4280,(989) 755-7785,43.398538,-83.911579
McDonald's,McDonald's - Alexandria,3915 S Mac Arthur Dr,Alexandria,LA,71302,(318) 448-8740,31.262111,-92.447771
McDonald's,McDonald's - Tewksbury,1915 Andover St,Tewksbury,MA,1876,(978) 858-3458,42.642445,-71.227608
McDonald's,McDonald's - Toms River,843 Fischer Blvd,Toms River,NJ,8753,(732) 270-8400,39.970779,-74.133476
McDonald's,McDonald's - Sheldon,101 34th Ave,Sheldon,IA,51201,(712) 324-2063,43.185589,-95.816067
McDonald's,McDonald's - Miami,599 Nw 62nd St,Miami,FL,33150,(305) 751-5636,25.83273,-80.206753
McDonald's,McDonald's - Greensboro,2347 Randleman Rd,Greensboro,NC,27406,(336) 275-1180,36.040493,-79.800289
McDonald's,McDonald's - New Orleans,1918 N Broad St,New Orleans,LA,70119-1848,(504) 324-3531,29.983598,-90.070866
McDonald's,McDonald's - Riverside,10952 Magnolia Ave,Riverside,CA,92505,(951) 351-2300,33.904705,-117.473159
McDonald's,McDonald's - Grand Prairie,308 Westchase Dr,Grand Prairie,TX,75052,(972) 237-5616,32.673707,-97.00571
McDonald's,McDonald's - Sylacauga,701 W Fort Williams St,Sylacauga,AL,35150-2441,(256) 249-4611,33.166988,-86.260598
McDonald's,McDonald's - Garden Grove,9852 Westminster Avenue,Garden Grove,CA,92844-2907,(714) 530-3694,33.759178,-117.957336
McDonald's,McDonald's - Rancho Cucamonga,8070 Monet Ave,Rancho Cucamonga,CA,91739,(909) 899-0400,34.106797,-117.536006
McDonald's,McDonald's - Loxley,12593 N Hickory St,Loxley,AL,36551-3131,(251) 964-4155,30.646853,-87.761219
McDonald's,McDonald's - Germantown,2030 Germantown Rd,Germantown,TN,38138-2844,(901) 755-5175,35.093484,-89.80834
McDonald's,McDonald's - Quincy,4805 Broadway Street,Quincy,IL,62305,(217) 214-7641,39.9354,-91.338787
McDonald's,McDonald's - San Antonio,20115-2 Us Highway 281 S,San Antonio,TX,78221,(210) 626-9190,29.220875,-98.478404
McDonald's,McDonald's - Anaheim,1500 S Harbor Blvd,Anaheim,CA,92802-2312,(714) 491-0563,33.81094,-117.914688
McDonald's,McDonald's - Hickory,15 Us Hwys 64 Alt 70 Se,Hickory,NC,28601,(828) 322-4700,35.715949,-81.336747
McDonald's,McDonald's - Glasgow,2351 S College Ave,Glasgow,DE,19702,(302) 733-0818,39.605391,-75.744535
McDonald's,McDonald's - El Campo,1240 N Mechanic,El Campo,TX,77437-2614,(979) 543-7054,29.206839,-96.277478
McDonald's,McDonald's - Warren,11631 10 Mile Rd,Warren,MI,48089,(586) 619-7121,42.478355,-83.005714
McDonald's,McDonald's - Scott,700 I-10 South Frontage Road,Scott,LA,70583,(337) 504-4403,30.244396,-92.106142
McDonald's,McDonald's - Forest Hill,3200 Se Loop 820,Forest Hill,TX,76140,(817) 535-6035,32.660602,-97.280517
McDonald's,McDonald's - South Charleston,303 Jefferson Road,South Charleston,WV,25309,(304) 744-5234,38.358358,-81.716565
McDonald's,McDonald's - Modesto,900 9th St,Modesto,CA,95354,(209) 574-6177,37.63915,-121.000082
McDonald's,McDonald's - Wamego,701 E 24 Hwy,Wamego,KS,66545,(785) 456-2500,39.209663,-96.304507
McDonald's,McDonald's - Sarasota,787 Washington Blvd,Sarasota,FL,34236,(941) 365-3030,27.328815,-82.530107
McDonald's,McDonald's - Lewisburg,141 N Ellington Pky,Lewisburg,TN,37091-2842,(931) 359-8601,35.446775,-86.775723
McDonald's,McDonald's - Stephens City,1131 Aylor Rd,Stephens City,VA,22655,(540) 869-6474,39.081866,-78.213033
McDonald's,McDonald's - Hot Springs,2975 Malvern Ave,Hot Springs,AR,71901,(501) 262-1127,34.472479,-92.991284
McDonald's,McDonald's - Mesa,909 North Dobson Road,Mesa,AZ,85201,(480) 668-5747,33.432722,-111.87108
McDonald's,McDonald's - Phoenix,711 W Indian School Road,Phoenix,AZ,85013,(602) 277-5512,33.494463,-112.083759
McDonald's,McDonald's - Albuquerque,8501 Golf Course Rd,Albuquerque,NM,87114,(505) 792-2200,35.180188,-106.688142
McDonald's,McDonald's - Kansas City,6830 Nw 83rd Ter,Kansas City,MO,64152,(816) 741-5800,39.245598,-94.659765
McDonald's,McDonald's - Towson,934 York Rd,Towson,MD,21204,(410) 823-6760,39.408845,-76.608799
McDonald's,McDonald's - Gardena,1747 West El Segundo Blvd,Gardena,CA,90249-2011,(323) 779-7322,33.916763,-118.308289
McDonald's,McDonald's - Memphis,1325 Ridgeway Road,Memphis,TN,38119-5303,(901) 767-9225,35.09539,-89.859168
McDonald's,McDonald's - Carmel,Us Route 6,Carmel,NY,10512,(845) 225-2845,41.411858,-73.666519
McDonald's,McDonald's - Jellico,1419 Fifth Street,Jellico,TN,37762,(423) 784-1600,36.581773,-84.114331
McDonald's,McDonald's - Oakhurst,40112 State Hwy 41,Oakhurst,CA,93644-8802,(559) 683-3344,37.332005,-119.654974
McDonald's,McDonald's - Knoxville,7402 Strawberry Plains Pike,Knoxville,TN,37871,(865) 933-9500,36.004721,-83.772648
McDonald's,McDonald's - Madison Heights,32797 John R Road,Madison Heights,MI,48071-4731,(248) 585-0367,42.532597,-83.107643
McDonald's,McDonald's - Bellflower,8507 Artesia Blvd,Bellflower,CA,90706,(562) 634-6016,33.875153,-118.151031
McDonald's,McDonald's - Waldorf,3000 Crain Hwy,Waldorf,MD,20601,(301) 638-9852,38.629281,-76.906642
McDonald's,McDonald's - Satellite Beach,1080 Highway A1a,Satellite Beach,FL,32937,(321) 428-3868,28.184612,-80.59299
McDonald's,McDonald's - Honolulu,3254 Waialae Ave,Honolulu,HI,96816,(808) 733-1540,21.286847,-157.806451
McDonald's,McDonald's - Burlington,1471 University Drive,Burlington,NC,27215,(336) 584-4014,36.067633,-79.519788
McDonald's,McDonald's - Westmont,31 E 63rd St,Westmont,IL,60559-2601,(630) 968-3868,41.773406,-87.972777
McDonald's,McDonald's - Little Falls,104 Lemieur St,Little Falls,MN,56345,(320) 632-2724,45.974716,-94.338144
McDonald's,McDonald's - Inverness,2801 East Gulf To Lake Hwy,Inverness,FL,34453,(352) 344-4080,28.85404,-82.387769
McDonald's,McDonald's - Sandy,Northwest Corner State St   Auto Mall Dr,Sandy,UT,84092,(801) 572-7805,40.547733,-111.891834
McDonald's,McDonald's - Edmond,20 Se 33rd St,Edmond,OK,73013,(405) 359-0209,35.623102,-97.484806
McDonald's,McDonald's - Ketchikan,2417 Tongass Ave,Ketchikan,AK,99901,(907) 225-1704,55.34867,-131.672389
McDonald's,McDonald's - Aberdeen,999 Beards Hill Rd,Aberdeen,MD,21001,(410) 272-7868,39.523412,-76.184676
McDonald's,McDonald's - Los Angeles,5908 W Manchester Ave,Los Angeles,CA,90045,(310) 410-3200,33.959622,-118.386113
McDonald's,McDonald's - Marion,3440 I-55,Marion,AR,72364,(870) 739-5346,35.213227,-90.206069
McDonald's,McDonald's - Abilene,2103 N Buckeye,Abilene,KS,67410-1507,(785) 263-1722,38.937691,-97.213334
McDonald's,McDonald's - Delran,4057 Route 130,Delran,NJ,8075,(856) 764-0647,40.015436,-74.956113
McDonald's,McDonald's - Ashburn,44131 Ashburn Shopping Plz,Ashburn,VA,20147,(703) 729-5093,39.042858,-77.473914
McDonald's,McDonald's - High Point,2738 S Main St,High Point,NC,27263,(336) 887-6011,35.924725,-79.983865
McDonald's,McDonald's - Luxemburg,408 Center Dr,Luxemburg,WI,54217,(920) 845-9446,44.545734,-87.704015
McDonald's,McDonald's - Gastonia,1700 S York St,Gastonia,NC,28052,(704) 861-1078,35.240968,-81.194545
McDonald's,McDonald's - Conroe,801 W Loop 336,Conroe,TX,77301,(346) 293-0394,30.335622,-95.467964
McDonald's,McDonald's - South San Francisco,587 Elcamino Real,South San Francisco,CA,94080-4402,(650) 588-1881,37.648029,-122.429626
McDonald's,McDonald's - Washington Mills,3918 Oneida St,Washington Mills,NY,13479,(315) 737-8970,43.052214,-75.271733
McDonald's,McDonald's - Warrior,100 Cane Creek Rd,Warrior,AL,35180,(205) 590-1183,33.810496,-86.823592
McDonald's,McDonald's - Charleston,12 W Lincoln,Charleston,IL,61920-3039,(217) 348-0215,39.484004,-88.18233
McDonald's,McDonald's - Dallas,5960 Greenville Ave,Dallas,TX,75206-1907,(214) 369-6256,32.857591,-96.768179
McDonald's,McDonald's - Chilhowie,309 S Whitetop Rd,Chilhowie,VA,24319,(276) 646-2291,36.797614,-81.680892
McDonald's,McDonald's - Worthington,80 E Wilson Bridge Rd,Worthington,OH,43085-2302,(614) 885-8798,40.108398,-83.015796
McDonald's,McDonald's - Woodlawn,10573 Springfield Pike,Woodlawn,OH,45215,(513) 771-8890,39.258199,-84.470408
McDonald's,McDonald's - Swansea,2605 N Illinois,Swansea,IL,62226,(618) 277-0379,38.542084,-89.984309
McDonald's,McDonald's - Mesquite,4450 Gus Thomasson Rd,Mesquite,TX,75150,(972) 681-0854,32.823811,-96.645427
McDonald's,McDonald's - Lemon Grove,7164 Broadway,Lemon Grove,CA,91945,(619) 464-2044,32.742865,-117.043762
McDonald's,McDonald's - Lincoln,6500 O St,Lincoln,NE,68510-2330,(402) 466-5766,40.813917,-96.631755
McDonald's,McDonald's - New Rochelle,720-724 North Ave,New Rochelle,NY,10801,(914) 636-9223,40.926161,-73.789119
McDonald's,McDonald's - Edgefield,714 Augusta Rd,Edgefield,SC,29824,(803) 637-0060,33.77058,-81.912395
McDonald's,McDonald's - Kingston,840 N Kentucky St,Kingston,TN,37763,(865) 376-0177,35.878121,-84.509851
McDonald's,McDonald's - Puyallup,804 S Hill Park Dr,Puyallup,WA,98373,(253) 435-0807,47.16029,-122.303169
McDonald's,McDonald's - Oxford,26 A Sutton Ave,Oxford,MA,1540,(508) 987-2047,42.117058,-71.859802
McDonald's,McDonald's - Mckinney,6750 W Virginia Pky,Mckinney,TX,75070,(214) 592-0369,33.199537,-96.706472
McDonald's,McDonald's - Tallahassee,3562 Blairstone Rd,Tallahassee,FL,32301,(850) 421-0350,30.40207,-84.236183
McDonald's,McDonald's - Bradenton,604 67th Street Cir E,Bradenton,FL,34208,(941) 747-4979,27.493673,-82.478332
McDonald's,McDonald's - Pittsburgh,11591 Frankstown Rd,Pittsburgh,PA,15235,(412) 243-0325,40.465128,-79.828945
McDonald's,McDonald's - Georgetown,Us 17 At Us 17a,Georgetown,SC,29442,(843) 546-8758,33.374524,-79.288391
McDonald's,McDonald's - Magna,3540 S 8400 W,Magna,UT,84044,(801) 508-0552,40.695506,-112.092536
McDonald's,McDonald's - Douglasville,2726 Chapel Hill Rd,Douglasville,GA,30135-1704,(770) 947-5224,33.730942,-84.736538
McDonald's,McDonald's - Bronx,1101 E Tremont Ave,Bronx,NY,10460,(718) 824-4123,40.840401,-73.876884
McDonald's,McDonald's - Walkertown,5226 Reidsville Road,Walkertown,NC,27051,(336) 595-3173,36.166519,-80.134897
McDonald's,McDonald's - Pueblo West,1012 N Market Plz,Pueblo West,CO,81007,(719) 547-9458,38.324895,-104.69946
McDonald's,McDonald's - Houston,940 N Wilcrest Drive,Houston,TX,77079,(713) 973-9003,29.783468,-95.575246
McDonald's,McDonald's - Columbia,434 Gervais St,Columbia,SC,29201,(803) 376-8898,33.997286,-81.04517
McDonald's,McDonald's - Tulsa,8952 S Memorial Dr,Tulsa,OK,74133-4303,(918) 250-0091,36.032234,-95.887037
McDonald's,McDonald's - Cross City,16228 Sw Highway 19,Cross City,FL,32628-5717,(352) 498-4284,29.636239,-83.13072
McDonald's,McDonald's - Pataskala,67 W Broad St,Pataskala,OH,43062-9552,(740) 927-2269,40.002411,-82.676283
McDonald's,McDonald's - San Antonio,5346 Roosevelt Avenue,San Antonio,TX,78214,(210) 924-0707,29.323028,-98.477363
McDonald's,McDonald's - Greenville,3618 Pelham Rd,Greenville,SC,29615,(864) 297-9774,34.859804,-82.269148
McDonald's,McDonald's - Kansas City,605 S 7th St,Kansas City,KS,66105-2001,(913) 321-9225,39.087276,-94.625401
McDonald's,McDonald's - Yorkville,2007 S Bridge St,Yorkville,IL,60560,(630) 553-1893,41.617857,-88.447666
McDonald's,McDonald's - High Point,930 Mall Loop Rd,High Point,NC,27262,(336) 883-1532,35.989409,-80.002741
McDonald's,McDonald's - Cartersville,968 Cassville White Rd,Cartersville,GA,30120,(770) 607-2070,34.272533,-84.807739
McDonald's,McDonald's - Hesperia,14466 Main St Pad G,Hesperia,CA,92345,(760) 948-2171,34.427158,-117.34906
McDonald's,McDonald's - Gooding,2440 Main Street,Gooding,ID,83330,(208) 934-5010,42.92274,-114.711762
McDonald's,McDonald's - Charlotte,1620 Sardis Rd,Charlotte,NC,28209,(704) 844-9707,35.138592,-80.738083
McDonald's,McDonald's - Cranberry Township,1703 Route 228 Cranberry Commons,Cranberry Township,PA,16066,(724) 741-0024,40.686173,-80.08256
McDonald's,McDonald's - Ocala,2015 S Pine St,Ocala,FL,34474,(352) 629-4848,29.168522,-82.137839
McDonald's,McDonald's - Albuquerque,925 San Pedro Dr Ne,Albuquerque,NM,87108-1849,(505) 265-4275,35.086944,-106.577731
McDonald's,McDonald's - Bellingham,1914 King St,Bellingham,WA,98225-4237,(360) 734-6890,48.755522,-122.463039
McDonald's,McDonald's - Lombard,540 W North Ave,Lombard,IL,60148,(630) 792-8009,41.9049,-88.031654
McDonald's,McDonald's - Ocoee,2281 Ocoee Apopka Rd,Ocoee,FL,34761,(407) 656-0651,28.602366,-81.551807
McDonald's,McDonald's - Tacoma,7217 Pacific Ave,Tacoma,WA,98408-7114,(253) 472-6766,47.191662,-122.43364
McDonald's,McDonald's - Escondido,3400 Del Lago Blvd,Escondido,CA,92029,(760) 738-8086,33.07146,-117.070518
McDonald's,McDonald's - Tacoma,4814 Center St,Tacoma,WA,98409,(253) 460-1069,47.234082,-122.502423
McDonald's,McDonald's - Cottondale,2510 Us Hwy 231,Cottondale,FL,32431,(850) 352-1035,30.748781,-85.382498
McDonald's,McDonald's - Nixa,Hwy 14 & Hwy 160,Nixa,MO,65714-0812,(417) 725-4939,37.04419,-93.300792
McDonald's,McDonald's - Sevierville,1831 Parkway,Sevierville,TN,37862,(865) 908-6222,35.827708,-83.573947
McDonald's,McDonald's - Columbus,5410 Renner Rd,Columbus,OH,43228-9361,(614) 870-0717,39.981705,-83.15174
McDonald's,McDonald's - Cleveland,710 N Davis Ave,Cleveland,MS,38732,(662) 846-1555,33.757154,-90.712043
McDonald's,McDonald's - Dewitt,1720 11th St,Dewitt,IA,52742,(563) 659-2730,41.826159,-90.556014
McDonald's,McDonald's - North Royalton,5304 Royalton Rd,North Royalton,OH,44133-4008,(440) 237-9988,41.31448,-81.722771
McDonald's,McDonald's - Poplar Bluff,Ushy 67 & Cherry  W M #19,Poplar Bluff,MO,63901,(573) 686-0949,36.7556,-90.411236
McDonald's,McDonald's - Los Angeles,2838 Crenshaw Blvd,Los Angeles,CA,90016-3604,(323) 731-0046,34.030281,-118.334778
McDonald's,McDonald's - Denver,4490 N Washington,Denver,CO,80216-3545,(303) 295-6961,39.777861,-104.978743
McDonald's,McDonald's - Broken Bow,123 E South E St,Broken Bow,NE,68822,(308) 872-2832,41.40208,-99.629685
McDonald's,McDonald's - Fort Wayne,1333 W Washington Center Rd,Fort Wayne,IN,46825-4142,(260) 489-4708,41.131968,-85.157258
McDonald's,McDonald's - Owego,29 Hickories Park Rd,Owego,NY,13827,(607) 687-1474,42.095705,-76.231281
McDonald's,McDonald's - Wilmington,4301 Market St,Wilmington,NC,28405,(910) 762-6601,34.242858,-77.891595
McDonald's,McDonald's - Wiggins,1220 W Central Ave,Wiggins,MS,39577,(601) 928-5362,30.851181,-89.152417
McDonald's,McDonald's - Beaumont,5580 Hwy 105,Beaumont,TX,77708,(409) 899-5192,30.13385,-94.166085
McDonald's,McDonald's - Alexandria,853 State Hwy 29 N,Alexandria,MN,56308,(320) 759-7272,45.90016,-95.365698
McDonald's,McDonald's - Tucson,3856 E Speedway Blvd,Tucson,AZ,85716,(520) 327-3355,32.235722,-110.910214
McDonald's,McDonald's - Crestwood,6410 W Hwy 146,Crestwood,KY,40014,(502) 241-4799,38.329716,-85.465187
McDonald's,McDonald's - Glendale,20227 N 67th Ave,Glendale,AZ,85308,(623) 572-7253,33.670214,-112.202431
McDonald's,McDonald's - Hamburg,6035 S Park Ave,Hamburg,NY,14075,(716) 648-4949,42.730575,-78.826253
McDonald's,McDonald's - San Francisco,255 Winston Dr,San Francisco,CA,94132-1921,(415) 759-5033,37.72658,-122.476528
McDonald's,McDonald's - Stockton,2025 March Ln,Stockton,CA,95207,(209) 307-6256,37.985294,-121.338432
McDonald's,McDonald's - Cedartown,1498 Rome Highway,Cedartown,GA,30125,(770) 749-3900,34.045526,-85.235517
McDonald's,McDonald's - Goldsboro,2002 Wayne Memorial Dr,Goldsboro,NC,27530,(919) 734-3920,35.397182,-77.96467
McDonald's,McDonald's - Glasgow,505 1st Ave N,Glasgow,MT,59230,(406) 228-2881,48.196145,-106.635279
McDonald's,McDonald's - Altoona,3734 8th St Sw,Altoona,IA,50009,(515) 957-8225,41.643518,-93.507105
McDonald's,McDonald's - Hillsboro,728 W Main St,Hillsboro,IL,62049-1734,(217) 532-3961,39.154069,-89.493821
McDonald's,McDonald's - Saint Albans,183 Swanton Rd,Saint Albans,VT,5478,(802) 524-3615,44.83765,-73.080765
McDonald's,McDonald's - Fitchburg,334 John Fitch Highway,Fitchburg,MA,1420,(978) 343-9618,42.579613,-71.774071
McDonald's,McDonald's - Wichita,2616 W 53rd St,Wichita,KS,67204,(316) 832-9646,37.782008,-97.373272
McDonald's,McDonald's - Williamsburg,I 80 & Hwy 149,Williamsburg,IA,52361-0780,(319) 668-2202,41.68937,-92.006601
McDonald's,McDonald's - Hughesville,755 State Hwy 405,Hughesville,PA,17737,(570) 584-3282,41.230081,-76.73465
McDonald's,McDonald's - Vacaville,1310 E Monte Vista Ave,Vacaville,CA,95688-3014,(707) 449-8275,38.361329,-121.972339
McDonald's,McDonald's - Springfield,901 N Grand,Springfield,IL,62702,(217) 522-6670,39.816645,-89.642761
McDonald's,McDonald's - Louisville,8600 Citadel Way,Louisville,KY,40220,(502) 491-8852,38.211618,-85.597549
McDonald's,McDonald's - Dickinson,3706 Gulf Freeway,Dickinson,TX,77539-6318,(281) 337-3390,29.44803,-95.077011
McDonald's,McDonald's - Springfield,528 S Glenstone,Springfield,MO,65802,(417) 831-5456,37.204142,-93.261414
McDonald's,McDonald's - Spring Hill,15050 Spring Hill Dr,Spring Hill,FL,34604,(352) 593-4192,28.481071,-82.478885
McDonald's,McDonald's - Oakdale,300 Market Place Dr,Oakdale,PA,15071,(724) 218-1798,40.440902,-80.239349
McDonald's,McDonald's - Riverside,8875 Limonite Ave,Riverside,CA,92509-5020,(951) 685-5526,33.97588,-117.476852
McDonald's,McDonald's - Syracuse,Ny S Thurway Mm280 E,Syracuse,NY,13206,(315) 463-5400,43.091,-76.10091
McDonald's,McDonald's - Roanoke,1335 Hershburger Rd,Roanoke,VA,24012,(540) 362-9417,37.315852,-79.957909
McDonald's,McDonald's - Los Angeles,1071 Martin Luther King Jr Blvd,Los Angeles,CA,90037,(323) 731-3666,34.011219,-118.294044
McDonald's,McDonald's - Ladson,302 College Park Blvd,Ladson,SC,29456,(843) 572-1510,32.999385,-80.09159
McDonald's,McDonald's - Los Angeles,245 N Soto St,Los Angeles,CA,90033-2914,(323) 263-9447,34.04631,-118.208504
McDonald's,McDonald's - Napoleon,1805 N Scott St,Napoleon,OH,43545,(419) 599-1192,41.40381,-84.132454
McDonald's,McDonald's - Germantown,21121 Frederick Road,Germantown,MD,20876,(301) 916-4293,39.203975,-77.244535
McDonald's,McDonald's - Dallas,18121 Marsh Lane,Dallas,TX,75287,(972) 820-5893,32.995106,-96.857864
McDonald's,McDonald's - Portland,7487 N Ida Ave,Portland,OR,97203,(503) 289-3544,45.586878,-122.738913
McDonald's,McDonald's - Buffalo,1970 Kensington Ave,Buffalo,NY,14215,(716) 839-2957,42.949768,-78.785684
McDonald's,McDonald's - Bakersfield,5363 Olive Drive,Bakersfield,CA,93308,(661) 392-1201,35.411886,-119.060917
McDonald's,McDonald's - Colchester,375 S Main St,Colchester,CT,6415,(860) 537-3555,41.567943,-72.325499
McDonald's,McDonald's - Los Banos,1575 W Pacheco Blvd,Los Banos,CA,93635,(209) 826-6079,37.053949,-120.879051
McDonald's,McDonald's - Honesdale,1187 Texas Palmyra Highway,Honesdale,PA,18431,(570) 253-5512,41.553394,-75.225179
McDonald's,McDonald's - Madison,Route 85,Madison,WV,25130,(304) 369-5350,38.073996,-81.822686
McDonald's,McDonald's - Eminence,4872 North Main Street,Eminence,KY,40019,(502) 845-8470,38.370342,-85.17952
McDonald's,McDonald's - Fort Worth,8401 Anderson St,Fort Worth,TX,76120,(817) 459-0520,32.764547,-97.169268
McDonald's,McDonald's - Houma,1709 Martin Luther King Blvd,Houma,LA,70364,(985) 876-3662,29.610773,-90.754075
McDonald's,McDonald's - Kokomo,2331 W Sycamore St,Kokomo,IN,46901-4107,(765) 457-8784,40.487209,-86.164108
McDonald's,McDonald's - Mchenry,302 South Route 31,Mchenry,IL,60050,(815) 344-2896,42.325822,-88.273719
McDonald's,McDonald's - Newark,621-635 Broadway,Newark,NJ,7104,(973) 482-3002,40.771854,-74.161499
McDonald's,McDonald's - St. Louis,1420 Hampton Avenue,St. Louis,MO,63139,(314) 781-8032,38.624458,-90.287483
McDonald's,McDonald's - Lake Stevens,507 Hwy 9,Lake Stevens,WA,98258,(425) 335-7793,48.001764,-122.105307
McDonald's,McDonald's - Independence,2088 Declaration Dr,Independence,KY,41051,(859) 363-0500,38.928885,-84.545327
McDonald's,McDonald's - Gilman,720 Us Hwy 24 West,Gilman,IL,60938,(815) 265-8080,40.752096,-88.000753
McDonald's,McDonald's - Matthews,9607 E Independence Blvd,Matthews,NC,28105-4627,(704) 847-0650,35.136301,-80.71371
McDonald's,McDonald's - St. Peters,3883 Veterans Memorial Pky,St. Peters,MO,63376,(636) 928-1085,38.791718,-90.563393
McDonald's,McDonald's - Wilmington,2541 Castle Hayne Rd,Wilmington,NC,28405,(910) 763-9222,34.288107,-77.921495
McDonald's,McDonald's - Parkersburg,1000 Division St,Parkersburg,WV,26101,(304) 428-2884,39.248744,-81.555593
McDonald's,McDonald's - Sandwich,Rt 34/Ind Springs Shopping Ctr,Sandwich,IL,60548,(815) 786-2519,41.647105,-88.597103
McDonald's,McDonald's - Gig Harbor,5500 Olympic Drive,Gig Harbor,WA,98335-3638,(253) 858-3555,47.307294,-122.576933
McDonald's,McDonald's - Park City,5900 Air Cap Drive,Park City,KS,67219-2105,(316) 744-3519,37.79227,-97.329119
McDonald's,McDonald's - Wapakoneta,1376 Bellefontaine St,Wapakoneta,OH,45895-9776,(419) 738-7264,40.563608,-84.174662
McDonald's,McDonald's - Northport,2000 82 By-Pass,Northport,AL,35476,(205) 339-8887,33.240304,-87.578195
McDonald's,McDonald's - Marshall,804 North Hwy 65,Marshall,AR,72650,(870) 448-2191,35.907264,-92.656561
McDonald's,McDonald's - Memphis,5255 Elvis Presley Blvd,Memphis,TN,38116,(901) 345-8602,35.004862,-90.027738
McDonald's,McDonald's - North Platte,3211 Newberry Rd,North Platte,NE,69101,(308) 534-1733,41.102867,-100.724007
McDonald's,McDonald's - Romeoville,675 N Weber Rd,Romeoville,IL,60446-3938,(815) 293-4900,41.651093,-88.124118
McDonald's,McDonald's - Enfield,34 Enfield St,Enfield,CT,6082,(860) 745-4314,42.024178,-72.585335
McDonald's,McDonald's - Athol,100 Brookside Rd,Athol,MA,1331,(978) 249-9866,42.581505,-72.254883
McDonald's,McDonald's - Las Vegas,3229 E Tropicana Ave,Las Vegas,NV,89121-7328,(702) 433-2627,36.099634,-115.105034
McDonald's,McDonald's - Traverse City,3606 N Us 31 S,Traverse City,MI,49684,(231) 946-6100,44.739061,-85.643415
McDonald's,McDonald's - Springfield,1607 E Battlefield Rd,Springfield,MO,65804-3705,(417) 887-4466,37.160049,-93.266744
McDonald's,McDonald's - Amarillo,1720 S Ross St,Amarillo,TX,79102-4420,(806) 376-5132,35.193229,-101.817873
McDonald's,McDonald's - Kannapolis,2401 Wonder Dr,Kannapolis,NC,28083,(704) 786-5822,35.465796,-80.588946
McDonald's,McDonald's - West New York,5400 Bergenline Ave,West New York,NJ,7093,(201) 205-1242,40.785122,-74.018883
McDonald's,McDonald's - Del City,4502 Se 29th St,Del City,OK,73115,(405) 677-5000,35.43474,-97.43687
McDonald's,McDonald's - Murrieta,40605 California Oaks Road,Murrieta,CA,92562,(951) 677-0576,33.573769,-117.202665
McDonald's,McDonald's - Joplin,3330 S Range Line,Joplin,MO,64804,(417) 782-2519,37.051979,-94.47908
McDonald's,McDonald's - Vincennes,2320 Hart St,Vincennes,IN,47591-6338,(812) 882-9339,38.66513,-87.511166
McDonald's,McDonald's - Hattiesburg,3111 Hardy St,Hattiesburg,MS,39401-7058,(601) 264-3605,31.325127,-89.336841
McDonald's,McDonald's - Alachua,16018 Nw Us Hwy 441,Alachua,FL,32615,(386) 462-1187,29.801013,-82.512839
McDonald's,McDonald's - Brockton,334 N Pearl St,Brockton,MA,2301,(508) 583-3627,42.100193,-71.067253
McDonald's,McDonald's - Novato,5600 Nave Dr,Novato,CA,94949,(415) 506-0102,38.061424,-122.53213
McDonald's,McDonald's - Providence,736 Branch Ave,Providence,RI,2904,(401) 273-7260,41.853289,-71.428567
McDonald's,McDonald's - Chattanooga,2017 Gunbarrel Rd,Chattanooga,TN,37421,(423) 510-1661,35.031686,-85.155316
McDonald's,McDonald's - Akron,578 E Market St,Akron,OH,44304-1660,(330) 762-7747,41.077661,-81.499643
McDonald's,McDonald's - Clinton,1796 E State Rd 163,Clinton,IN,47842,(765) 832-5975,39.657554,-87.430306
McDonald's,McDonald's - Bakersfield,4600 Ming Ave,Bakersfield,CA,93309-4822,(661) 833-8706,35.339931,-119.05363
McDonald's,McDonald's - Berkeley Springs,28 Morgan Square,Berkeley Springs,WV,25411,(304) 258-9540,39.606519,-78.238403
McDonald's,McDonald's - Clyde,1040 W Mcpherson Hwy,Clyde,OH,43410,(419) 547-7878,41.314652,-82.990681
McDonald's,McDonald's - Johnson City,560 Harry L Dr,Johnson City,NY,13790,(607) 770-1966,42.123795,-75.970502
McDonald's,McDonald's - Euclid,22291 Euclid Ave,Euclid,OH,44117-1616,(216) 531-7001,41.573032,-81.52565
McDonald's,McDonald's - Hammond,1913 N Morrison Blvd,Hammond,LA,70401,(985) 902-9911,30.518669,-90.483306
McDonald's,McDonald's - Hastings,900 W J St,Hastings,NE,68901,(402) 463-5123,40.568451,-98.39329
McDonald's,McDonald's - White House,856 Highway 76,White House,TN,37188,(615) 672-2957,36.469421,-86.677994
McDonald's,McDonald's - Raleigh,703 W Peace St,Raleigh,NC,27605,(919) 833-9875,35.788241,-78.649157
McDonald's,McDonald's - North Baltimore,12776 Deshler Rd Po Box 26,North Baltimore,OH,45872-0026,(419) 257-3007,41.173281,-83.645599
McDonald's,McDonald's - Calvert City,I-24 & Hwy 62,Calvert City,KY,42029,(270) 395-4575,37.003834,-88.328317
McDonald's,McDonald's - Arlington,915 E Randol Mill Rd,Arlington,TX,76011-6017,(817) 276-9993,32.750914,-97.095435
McDonald's,McDonald's - High Ridge,2701 Ridge Point Drive,High Ridge,MO,63049,(636) 376-2370,38.463335,-90.524168
McDonald's,McDonald's - Turlock,2400 Geer Rd,Turlock,CA,95382,(209) 632-6874,37.515145,-120.848486
McDonald's,McDonald's - Thief River Falls,Highway 59 South,Thief River Falls,MN,56701-0403,(218) 681-6770,48.11417,-96.156119
McDonald's,McDonald's - Grants Pass,1610 Allen Creek Road,Grants Pass,OR,97527,(541) 472-1772,42.420628,-123.353337
McDonald's,McDonald's - Chickasha,2027 S 4th St,Chickasha,OK,73018-5942,(405) 222-1851,35.029893,-97.934381
McDonald's,McDonald's - Plano,12704 E Route 34,Plano,IL,60545,(630) 552-7084,41.662092,-88.502866
McDonald's,McDonald's - Lucedale,12135 Hwy 63 S,Lucedale,MS,39452-2908,(601) 947-2284,30.910263,-88.598777
McDonald's,McDonald's - Los Angeles,201 W Washington Blvd,Los Angeles,CA,90007,(213) 746-0525,34.03252,-118.266914
McDonald's,McDonald's - Overland Park,9717 W 87th Street,Overland Park,KS,66212,(913) 642-3738,38.970839,-94.69776
McDonald's,McDonald's - O'Fallon,2144 W Terra Ln,O'Fallon,MO,63366,(636) 332-2276,38.805184,-90.769805
McDonald's,McDonald's - Schoolcraft,710 North Grand Street,Schoolcraft,MI,49087,(269) 679-5185,42.1221,-85.636485
McDonald's,McDonald's - Crowley,2026 N Parkerson Ave,Crowley,LA,70526-2336,(337) 788-0577,30.229809,-92.381766
McDonald's,McDonald's - Roslindale,718 American Lgn Hwy,Roslindale,MA,2131,(617) 323-7027,42.282864,-71.113602
McDonald's,McDonald's - La Place,1608 W Airline,La Place,LA,70068-3331,(985) 652-2600,30.073315,-90.497144
McDonald's,McDonald's - Rapid City,720 Cleveland St,Rapid City,SD,57701,(605) 343-6984,44.061666,-103.231191
McDonald's,McDonald's - Eugene,659 E Broadway,Eugene,OR,97403,(541) 485-3857,44.050179,-123.083049
McDonald's,McDonald's - Idaho Falls,6737 South 45th West,Idaho Falls,ID,83402,(208) 542-4402,43.436657,-112.119809
McDonald's,McDonald's - Miami,610 Ne 125th St,Miami,FL,33181,(305) 899-2882,25.889932,-80.186093
McDonald's,McDonald's - Providence,343 Broad St,Providence,RI,2907,(401) 421-5104,41.813784,-71.421977
McDonald's,McDonald's - Show Low,5401 S White Mtn (W*M #1230),Show Low,AZ,85901,(928) 537-8802,34.200578,-110.015679
McDonald's,McDonald's - Lexington,3765 Palomar Centre Drive,Lexington,KY,40513,(859) 223-8811,38.005473,-84.572955
McDonald's,McDonald's - Freeland,7374 Midland Rd,Freeland,MI,48623-8803,(989) 695-6083,43.515748,-84.118437
McDonald's,McDonald's - Lafayette,1430 Ne Evangeline Thwy,Lafayette,LA,70501,(337) 233-8693,30.243538,-92.010954
McDonald's,McDonald's - Ravenna,418 W Main St,Ravenna,OH,44266-2716,(330) 297-5379,41.158241,-81.247993
McDonald's,McDonald's - Reedley,835 N Reed Ave,Reedley,CA,93654-2434,(559) 638-6688,36.603653,-119.458217
McDonald's,McDonald's - Old Bridge,1111 Rt 9 N,Old Bridge,NJ,8857,(732) 525-5848,40.44743,-74.299088
McDonald's,McDonald's - Lovelock,1555 Main St,Lovelock,NV,89419,(775) 273-0209,40.178851,-118.472843
McDonald's,McDonald's - Detroit,18201 Mack Avenue,Detroit,MI,48224,(313) 499-1121,42.409462,-82.914486
McDonald's,McDonald's - Bay City,3840 E Wilder Rd,Bay City,MI,48706-2146,(989) 684-2851,43.62332,-83.900767
McDonald's,McDonald's - Warner,1003 S Hwy 2,Warner,OK,74469,(918) 463-5313,35.479683,-95.306904
McDonald's,McDonald's - Eagan,1351 Town Centre Dr,Eagan,MN,55123,(651) 686-5592,44.829915,-93.165367
McDonald's,McDonald's - Wellington,10300 W Forest Hill Blvd,Wellington,FL,33414,(561) 383-8993,26.646333,-80.208476
McDonald's,McDonald's - Chicago,2525 S Martin Luther King Dr,Chicago,IL,60616,(312) 842-8643,41.847136,-87.616806
McDonald's,McDonald's - Willits,1488 S Main St,Willits,CA,95490-4301,(707) 459-2120,39.394604,-123.349533
McDonald's,McDonald's - Hillsboro,10229 State Rte 21,Hillsboro,MO,63050,(636) 797-5977,38.248089,-90.558028
McDonald's,McDonald's - Santa Maria,1407 Bradley Rd,Santa Maria,CA,93454,(805) 928-4881,34.935637,-120.419156
McDonald's,McDonald's - Chicago,23 N Western Avenue,Chicago,IL,60612-2200,(312) 243-3599,41.881901,-87.686023
McDonald's,McDonald's - Longview,3118 Estes Parkway,Longview,TX,75602-4234,(903) 758-7470,32.448865,-94.722587
McDonald's,McDonald's - Yuba City,1254 Stabler Ln,Yuba City,CA,95911,(530) 751-0193,39.146744,-121.644243
McDonald's,McDonald's - College Station,2420 Texas Ave,College Station,TX,77840,(979) 696-9346,30.607388,-96.309816
McDonald's,McDonald's - Massillon,5554 Wales Ave Nw,Massillon,OH,44646,(330) 833-2655,40.861554,-81.484587
McDonald's,McDonald's - Homewood,818 Green Springs Rd,Homewood,AL,35209,(205) 942-5681,33.460451,-86.818287
McDonald's,McDonald's - Surf City,13481 Nc Hwy 50,Surf City,NC,28445,(910) 329-0495,34.448864,-77.562918
McDonald's,McDonald's - Midland,6600 Flat Rock Road,Midland,GA,31820,(706) 561-1005,32.544275,-84.872678
McDonald's,McDonald's - Perris,1675 N Perris Blvd,Perris,CA,92571,(951) 940-4180,33.802143,-117.225586
McDonald's,McDonald's - Littleton,6300 South Broadway,Littleton,CO,80120,(303) 794-6714,39.602029,-104.987548
McDonald's,McDonald's - Monroe,1614 Sterlington Rd,Monroe,LA,71203-3507,(318) 343-0515,32.534869,-92.078822
McDonald's,McDonald's - Gretna,709 Terry Pky,Gretna,LA,70056,(504) 394-4581,29.899907,-90.029817
McDonald's,McDonald's - Peoria,8452 W Thunderbird,Peoria,AZ,85381,(623) 776-0858,33.61044,-112.240856
McDonald's,McDonald's - North Little Rock,5506 Macarthur Dr,North Little Rock,AR,72118,(501) 753-4218,34.806617,-92.292016
McDonald's,McDonald's - St. Louis,10431 Page Ave,St. Louis,MO,63132,(314) 428-4425,38.691914,-90.389954
McDonald's,McDonald's - New Castle,1720 S Memorial Dr,New Castle,IN,47362-1214,(765) 529-2970,39.915558,-85.383476
McDonald's,McDonald's - Chicago,1951 N Western Ave,Chicago,IL,60647-4331,(773) 276-2366,41.91711,-87.687046
McDonald's,McDonald's - Fairmont,2217 N State St,Fairmont,MN,56031-3633,(507) 432-1579,43.677005,-94.448684
McDonald's,McDonald's - Grants,1700 W Santa Fe,Grants,NM,87020-3544,(505) 287-3584,35.157599,-107.870599
McDonald's,McDonald's - Tampa,8214 N Florida Ave,Tampa,FL,33604,(813) 935-4477,28.023042,-82.459846
McDonald's,McDonald's - Winston Salem,3401 Robinhood Rd,Winston Salem,NC,27106,(336) 774-1625,36.117298,-80.314503
McDonald's,McDonald's - Hilo,325 E Makaala St,Hilo,HI,96740,(808) 934-7200,19.700173,-155.061947
McDonald's,McDonald's - Greensburg,985 E Pittsburgh St,Greensburg,PA,15601,(724) 837-1800,40.303522,-79.510756
McDonald's,McDonald's - Milwaukie,8151 Se Lamphier,Milwaukie,OR,97222,(503) 774-2960,45.453398,-122.579479
McDonald's,McDonald's - Kalamazoo,6820 W Main (M-43),Kalamazoo,MI,49009,(269) 353-8599,42.296384,-85.683582
McDonald's,McDonald's - Gibson City,801 S Sangamon,Gibson City,IL,60936-1746,(217) 784-4269,40.45651,-88.376221
McDonald's,McDonald's - Mcallen,7320 N 10th,Mcallen,TX,78504,(956) 972-1476,26.268868,-98.218203
McDonald's,McDonald's - Winter Park,1302 W Fairbanks Ave,Winter Park,FL,32789,(407) 622-1359,28.592665,-81.366653
McDonald's,McDonald's - Hendersonville,393 W Main St,Hendersonville,TN,37075-3312,(615) 822-1124,36.30261,-86.627775
McDonald's,McDonald's - Jonesborough,506 Boones Creek Rd,Jonesborough,TN,37659,(423) 913-1761,36.300734,-82.467166
McDonald's,McDonald's - Florence,7909 Dream St,Florence,KY,41042-1801,(859) 371-5078,38.988276,-84.641766
McDonald's,McDonald's - Lancaster,1880 Hempstead Rd,Lancaster,PA,17601,(717) 509-6988,40.051827,-76.255586
McDonald's,McDonald's - Spring Hill,5431 Main St,Spring Hill,TN,37174,(931) 486-1000,35.744772,-86.939161
McDonald's,McDonald's - Knoxville,Hardin Valley & Pellissippi Pkwy,Knoxville,TN,37920,(865) 694-9500,35.947176,-84.159432
McDonald's,McDonald's - Durham,5507 S Miami Blvd,Durham,NC,27703,(919) 474-8809,35.877574,-78.850242
McDonald's,McDonald's - Frederick,1501 Garret Dr,Frederick,MD,21702,(301) 663-6036,39.42167,-77.467203
McDonald's,McDonald's - Miami,7405 Nw 36th St,Miami,FL,33166,(305) 593-0376,25.809995,-80.31739
McDonald's,McDonald's - Mccomb,101 Edgewood Dr,Mccomb,MS,39648,(601) 684-3120,31.261021,-90.475358
McDonald's,McDonald's - Glencoe,616 W Chastain Boulevard,Glencoe,AL,35904,(256) 492-7682,33.967377,-85.943255
McDonald's,McDonald's - Conroe,1407 N Loop 336 West,Conroe,TX,77301,(936) 756-0707,30.331114,-95.479495
McDonald's,McDonald's - Elk River,700 Dodge Ave,Elk River,MN,55330-1977,(763) 441-7966,45.310227,-93.556415
McDonald's,McDonald's - Wildomar,23819 Clinton Keith Rd,Wildomar,CA,92595,(951) 461-7345,33.596716,-117.243126
McDonald's,McDonald's - Oakwood Village,23321 Broadway Ave,Oakwood Village,OH,44146,(440) 439-8080,41.367693,-81.5103
McDonald's,McDonald's - Westminster,9499 N Sheridan,Westminster,CO,80030,(303) 650-8888,39.867969,-105.056775
McDonald's,McDonald's - Cleveland,1350 25th St Nw,Cleveland,TN,37312,(423) 479-5343,35.189909,-84.880148
McDonald's,McDonald's - Norfolk,7900 Shore Dr,Norfolk,VA,23518,(757) 587-5240,36.918566,-76.192293
McDonald's,McDonald's - Fulshear,6748 Fm 1463 Rd,Fulshear,TX,77441,(281) 394-7272,29.696103,-95.846967
McDonald's,McDonald's - Portland,5613 Se 82nd Ave,Portland,OR,97266-4813,(503) 777-9007,45.48205,-122.579604
McDonald's,McDonald's - Manhattan,14 E 47th St,Manhattan,NY,10017,(347) 779-9123,40.756223,-73.977799
McDonald's,McDonald's - San Antonio,1733 Sw Loop 410,San Antonio,TX,78227-1601,(210) 675-8100,29.41711,-98.650524
McDonald's,McDonald's - Le Roy,8700 Valance Rd,Le Roy,NY,14482,(585) 293-3750,43.030812,-77.907032
McDonald's,McDonald's - Lowell,66 Plain St,Lowell,MA,1851,(978) 970-5531,42.626266,-71.321671
McDonald's,McDonald's - Carrollton,2151 N Josey Ln,Carrollton,TX,75006-2968,(972) 245-2924,32.974881,-96.890412
McDonald's,McDonald's - Manistee,1630 S Us Hwy 31,Manistee,MI,49660,(231) 723-4377,44.225086,-86.311117
McDonald's,McDonald's - Seaside,225 S Roosevelt Dr,Seaside,OR,97138-6741,(503) 738-9498,45.992238,-123.920397
McDonald's,McDonald's - Forsyth,109 Lucile Avenue,Forsyth,IL,62535,(217) 875-7913,39.919195,-88.954619
McDonald's,McDonald's - Dexter,101 Baker Rd,Dexter,MI,48130,(734) 424-0461,42.294945,-83.878571
McDonald's,McDonald's - Uniontown,1 Work Pkwy,Uniontown,PA,15401,(724) 439-0771,39.902759,-79.75294
McDonald's,McDonald's - South Attleboro,1250 Newport Ave,South Attleboro,MA,2703,(508) 399-7949,41.900848,-71.353284
McDonald's,McDonald's - Winston Salem,7742 North Point Boulevard,Winston Salem,NC,27106,(336) 759-0090,36.151659,-80.282968
McDonald's,McDonald's - Aliquippa,3003 Height Rd,Aliquippa,PA,15001,(724) 375-9977,40.570474,-80.255992
McDonald's,McDonald's - Kodiak,209 Thorsheim Ave,Kodiak,AK,99615-6036,(907) 486-3030,57.790794,-152.406555
McDonald's,McDonald's - Tempe,1325 W Broadway,Tempe,AZ,85282-1212,(480) 966-1746,33.407133,-111.958688
McDonald's,McDonald's - Irvine,901 Richmond Rd,Irvine,KY,40336,(606) 723-1013,37.697001,-83.987632
McDonald's,McDonald's - Elmwood Park,7217 W Grand Avenue,Elmwood Park,IL,60707,(708) 401-8298,41.923933,-87.807611
McDonald's,McDonald's - Kahului,340 Dairy Rd,Kahului,HI,96732,(808) 877-6498,20.883133,-156.453627
McDonald's,McDonald's - Parkville,7927 Belair Road,Parkville,MD,21236,(410) 663-4804,39.373813,-76.508685
McDonald's,McDonald's - Winchester,222 Grocery Ave,Winchester,VA,22602,(540) 722-6155,39.167387,-78.120056
McDonald's,McDonald's - Marion,483 N Main St,Marion,OH,43302-2330,(740) 382-6611,40.596491,-83.129911
McDonald's,McDonald's - Lexington,4364 Augusta Rd,Lexington,SC,29073,(803) 808-6588,33.974055,-81.15514
McDonald's,McDonald's - Teaticket,263 E Main St,Teaticket,MA,2536,(508) 548-3872,41.567291,-70.594702
McDonald's,McDonald's - Topeka,2880 Southeast California Avenue,Topeka,KS,66605-1713,(785) 267-6181,39.015591,-95.651006
McDonald's,McDonald's - Kissimmee,3845 Pleasant Hill Rd,Kissimmee,FL,34746,(321) 697-5680,28.18093,-81.439572
McDonald's,McDonald's - Chambersburg,1075 Lincoln Way E,Chambersburg,PA,17201,(717) 263-4601,39.930338,-77.638894
McDonald's,McDonald's - Queen Creek,305 E Hunt Hwy,Queen Creek,AZ,85143,(480) 987-5551,33.161762,-111.564326
McDonald's,McDonald's - Ponderay,205 Bonner Mall Way,Ponderay,ID,83852-9748,(208) 263-5614,48.300865,-116.545522
McDonald's,McDonald's - Knightstown,6190 South State Road 109,Knightstown,IN,46148,(765) 785-2090,39.843607,-85.557612
McDonald's,McDonald's - Sulphur,1609 S Ruth St,Sulphur,LA,70663-4905,(337) 527-9816,30.224553,-93.376741
McDonald's,McDonald's - Santa Fe Spring,13330 East Telegraph Road,Santa Fe Spring,CA,90670,(562) 903-5982,33.941299,-118.048675
McDonald's,McDonald's - Oakland,7300 Bancroft Avenue,Oakland,CA,94605,(510) 562-0345,37.768189,-122.174145
McDonald's,McDonald's - Alamosa,100 Craft Dr,Alamosa,CO,81101-2272,(719) 589-2228,37.475429,-105.894045
McDonald's,McDonald's - Garner,1567 Hwy 70 W,Garner,NC,27529,(919) 772-9496,35.724763,-78.649547
McDonald's,McDonald's - North Augusta,4403 Jefferson Davis Hwy,North Augusta,SC,29841,(803) 593-8700,33.503385,-81.900452
McDonald's,McDonald's - Rockford,930 W Riverside Boulevard,Rockford,IL,61103,(815) 877-3028,42.315362,-89.075037
McDonald's,McDonald's - Lindenhurst,221 Sunrise Hwy,Lindenhurst,NY,11757,(631) 888-0405,40.704765,-73.372536
McDonald's,McDonald's - Fremont,2014 State Route 53,Fremont,OH,43420,(419) 355-9040,41.373499,-83.117968
McDonald's,McDonald's - Columbus City,1436 Manchester Expressway,Columbus City,GA,31904,(706) 324-1436,32.506681,-84.971289
McDonald's,McDonald's - Alameda,2239 Shoreline Dr,Alameda,CA,94501-6227,(510) 521-4409,37.755219,-122.252029
McDonald's,McDonald's - Millersburg,1586 S Washington St,Millersburg,OH,44654-9457,(330) 674-5334,40.5345,-81.917511
McDonald's,McDonald's - Springtown,421 E Hwy 199,Springtown,TX,76082,(817) 523-7106,32.962723,-97.678341
McDonald's,McDonald's - Winston Salem,426 Jonestown Rd,Winston Salem,NC,27104,(336) 774-0773,36.073764,-80.338064
McDonald's,McDonald's - Bellflower,16208 Lakewood Boulevard,Bellflower,CA,90706-5150,(562) 925-3001,33.887348,-118.142357
McDonald's,McDonald's - Jacksonville,7784 Blanding Blvd,Jacksonville,FL,32244,(904) 573-1305,30.205256,-81.74015
McDonald's,McDonald's - Stockton,1009 N Wilson Way,Stockton,CA,95205-4217,(209) 762-3452,37.965936,-121.274603
McDonald's,McDonald's - Union Beach,825 Rt 36,Union Beach,NJ,7735,(732) 264-3535,40.438084,-74.168541
McDonald's,McDonald's - Woodstock,931 Ridgewalk Parkway,Woodstock,GA,30076,(678) 494-0736,34.122372,-84.52463
McDonald's,McDonald's - Rockford,314 N Mulford Rd,Rockford,IL,61107-5158,(815) 398-7117,42.269804,-89.000384
McDonald's,McDonald's - Wilder,1450 Saint Johns Lane,Wilder,KY,41076,(859) 781-8222,39.010487,-84.469424
McDonald's,McDonald's - Saint Marys,210 3rd St,Saint Marys,WV,26170,(304) 684-3600,39.388416,-81.20614
McDonald's,McDonald's - Yucca Valley,57626 29 Palms Hwy,Yucca Valley,CA,92284-3073,(760) 365-0711,34.126534,-116.405807
McDonald's,McDonald's - Eatonton,105 Oak St,Eatonton,GA,31024,(706) 485-3533,33.32254,-83.386686
McDonald's,McDonald's - Sammamish,615 228th Ave Ne,Sammamish,WA,98074,(425) 868-5723,47.614917,-122.03596
McDonald's,McDonald's - Clearwater,2454 Mcmullen Booth Road,Clearwater,FL,33759,(727) 754-2860,28.010527,-82.708455
McDonald's,McDonald's - Oklahoma City,7800 S Sooner Rd,Oklahoma City,OK,73135,(405) 733-3039,35.388561,-97.422885
McDonald's,McDonald's - Lincoln,1028 Saunders,Lincoln,NE,68521-2326,(402) 476-2538,40.836838,-96.706602
McDonald's,McDonald's - Van Nuys,13700 Sherman Way,Van Nuys,CA,91405,(818) 442-9790,34.200811,-118.431603
McDonald's,McDonald's - Dallas,9403 Garland Road,Dallas,TX,75218,(214) 484-3961,32.833177,-96.703625
McDonald's,McDonald's - Rosedale,244-10 Merrick Blvd,Rosedale,NY,11422,(718) 978-4803,40.673912,-73.728973
McDonald's,McDonald's - Romeoville,1300 Marquette Dr,Romeoville,IL,60446-1026,(630) 759-2192,41.672127,-88.06808
McDonald's,McDonald's - Suffolk,6201 College Dr,Suffolk,VA,23435,(757) 638-0414,36.877975,-76.42453
McDonald's,McDonald's - Branson,1361 State Hwy 248,Branson,MO,65616-8620,(417) 337-7744,36.663377,-93.239852
McDonald's,McDonald's - Staten Island,260 Page Avenue,Staten Island,NY,10307,(718) 227-2483,40.517726,-74.234712
McDonald's,McDonald's - Orem,1265 S Sandhill Rd,Orem,UT,84058,(801) 226-6938,40.27426,-111.712726
McDonald's,McDonald's - Nashville,501 E State Road 46,Nashville,IN,47448,(812) 988-4452,39.201601,-86.23856
McDonald's,McDonald's - Mulberry,205 East Canal St,Mulberry,FL,33860,(863) 425-2660,27.894545,-81.972366
McDonald's,McDonald's - Fredericksburg,1203 Warrenton Rd,Fredericksburg,VA,22406,(888) 317-0904,38.370034,-77.526913
McDonald's,McDonald's - Canton,2070 Cumming Hwy,Canton,GA,30114,(770) 704-1706,34.235829,-84.452264
McDonald's,McDonald's - Two Rivers,1414 Lake St,Two Rivers,WI,54241-3535,(920) 793-2239,44.144751,-87.567524
McDonald's,McDonald's - Hickory Hills,7620 W 95th St,Hickory Hills,IL,60457,(708) 237-4650,41.719094,-87.810009
McDonald's,McDonald's - Sacramento,5821 Antelope Rd,Sacramento,CA,95842,(916) 721-3135,38.704194,-121.33194
McDonald's,McDonald's - Santa Barbara,1213 State St,Santa Barbara,CA,93101,(805) 962-6976,34.423608,-119.705139
McDonald's,McDonald's - Caddo Valley,145 Valley Street,Caddo Valley,AR,71923,(870) 246-7449,34.182675,-93.071226
McDonald's,McDonald's - Palatine,275 W Northwest Hwy,Palatine,IL,60067-2412,(847) 934-9988,42.12236,-88.050235
McDonald's,McDonald's - Lewisville,190 E Fm 3040,Lewisville,TX,75067,(972) 459-5151,33.000381,-96.990955
McDonald's,McDonald's - Campbellsville,605 E Broadway,Campbellsville,KY,42718,(270) 465-6658,37.344669,-85.34002
McDonald's,McDonald's - Bonita,4340 Bonita Rd,Bonita,CA,91902,(619) 472-0627,32.660292,-117.034444
McDonald's,McDonald's - Buffalo,2058 Elmwood Ave,Buffalo,NY,14216,(716) 332-0206,42.953167,-78.878823
McDonald's,McDonald's - Lagrange,1797 W Point Rd,Lagrange,GA,30240,(706) 883-6632,33.029185,-85.070549
McDonald's,McDonald's - Burlington,440 Lincoln Avenue South,Burlington,CO,80807,(719) 346-5190,39.296697,-102.278363
McDonald's,McDonald's - Fort Wayne,3202 St Joe Center Road,Fort Wayne,IN,46835,(260) 485-8625,41.133137,-85.101528
McDonald's,McDonald's - Northridge,10350 Reseda Blvd,Northridge,CA,91326-3433,(818) 368-6077,34.258812,-118.535645
McDonald's,McDonald's - Bethlehem,2610 Easton Ave,Bethlehem,PA,18017,(610) 865-1421,40.643841,-75.345975
McDonald's,McDonald's - Millis,808 Main St,Millis,MA,2054,(508) 376-4031,42.167736,-71.355537
McDonald's,McDonald's - Tampa,104 W Bearss Ave,Tampa,FL,33613,(813) 962-8573,28.087678,-82.460441
McDonald's,McDonald's - Meridian,2104 N Hills St,Meridian,MS,39305,(601) 482-3007,32.409834,-88.700857
McDonald's,McDonald's - Horn Lake,1512 Goodman Rd,Horn Lake,MS,38637,(662) 342-1196,34.963064,-90.017816
McDonald's,McDonald's - Rockville Centre,618 Sunrise Hwy,Rockville Centre,NY,11570,(516) 255-9560,40.656586,-73.628914
McDonald's,McDonald's - Junction City,416 W 6th St,Junction City,KS,66441-3051,(785) 238-4000,39.028518,-96.836013
McDonald's,McDonald's - Mt. Pleasant,13343 Washington Ave,Mt. Pleasant,WI,53177-1527,(262) 886-3010,42.723872,-87.950672
McDonald's,McDonald's - Houston,6615 Tidwell Road,Houston,TX,77016-4823,(713) 635-7730,29.849012,-95.303014
McDonald's,McDonald's - Harrisburg,5590 Allentown Blvd,Harrisburg,PA,17112,(717) 652-9123,40.320075,-76.793509
McDonald's,McDonald's - Elsa,112 E Edinburg Ave,Elsa,TX,78543,(956) 262-3226,26.293112,-97.992807
McDonald's,McDonald's - Modesto,901 N Carpenter Rd,Modesto,CA,95351-1182,(209) 544-2350,37.646463,-121.030666
McDonald's,McDonald's - Fresno,5222 W Shaw Ave,Fresno,CA,93722-5030,(559) 276-7722,36.808602,-119.884193
McDonald's,McDonald's - Port Byron,Nys Thruway Mm 310 E,Port Byron,NY,13140,(315) 776-5700,43.023766,-76.670854
McDonald's,McDonald's - Corona,1298 E Ontario Ave,Corona,CA,92879,(951) 736-1003,33.846244,-117.539578
McDonald's,McDonald's - Caledonia,5125 Douglas Ave,Caledonia,WI,53402-2029,(262) 681-9962,42.787031,-87.809663
McDonald's,McDonald's - Miami Beach,1650 Washington Ave,Miami Beach,FL,33139,(305) 672-8031,25.790433,-80.132081
McDonald's,McDonald's - Gainesville,707 Jesse Jewell Parkway,Gainesville,GA,30501,(770) 536-2382,34.292545,-83.829895
McDonald's,McDonald's - Mechanicsville,7059 Mechanicsville Pike,Mechanicsville,VA,23111,(804) 746-1747,37.611295,-77.340107
McDonald's,McDonald's - Chicago,Terminal 1 Concourse C,Chicago,IL,60666,(773) 686-1540,41.977647,-87.910641
McDonald's,McDonald's - Russellville,100 Armory Dr,Russellville,KY,42276-1602,(270) 725-5997,36.851238,-86.89121
McDonald's,McDonald's - Blackwood,1521 Blackwood Clementon Road,Blackwood,NJ,8012,(856) 227-7123,39.803563,-75.043816
McDonald's,McDonald's - Shepherd,550 E Wright Ave,Shepherd,MI,48883,(989) 828-7006,43.523675,-84.679505
McDonald's,McDonald's - Natrona Heights,2001 Freeport Rd,Natrona Heights,PA,15065,(724) 224-4866,40.626405,-79.72217
McDonald's,McDonald's - Zanesville,2739 Maple Ave,Zanesville,OH,43701-1713,(740) 452-3753,39.972624,-82.011756
McDonald's,McDonald's - Indianapolis,4044 E Southport Road,Indianapolis,IN,46227,(317) 755-1115,39.665826,-86.097923
McDonald's,McDonald's - Little Elm,2670 Fm 423,Little Elm,TX,75068,(469) 362-0546,33.176751,-96.888193
McDonald's,McDonald's - Raleigh,6320 Battle Bridge Road,Raleigh,NC,27610,(919) 773-4124,35.72376,-78.546995
McDonald's,McDonald's - Crafton,6380 Stuebenville Pike,Crafton,PA,15205,(412) 787-0880,40.448301,-80.155585
McDonald's,McDonald's - Arroyo Grande,410 Grand Ave Po Box 306,Arroyo Grande,CA,93420,(805) 489-7614,35.120764,-120.586459
McDonald's,McDonald's - Windber,298 21st St,Windber,PA,15963,(814) 467-1646,40.229494,-78.828574
McDonald's,McDonald's - Jordan,260 Triangle Ln,Jordan,MN,55352,(952) 492-6680,44.669981,-93.637494
McDonald's,McDonald's - Pittsburgh,148 North Euclid Avenue,Pittsburgh,PA,15206,(412) 362-7479,40.46308,-79.926919
McDonald's,McDonald's - Westbrook,95 Main Street,Westbrook,ME,4092,(207) 854-1224,43.678298,-70.334866
McDonald's,McDonald's - Miami,14699 Sw 42th St,Miami,FL,33175,(305) 226-2422,25.729033,-80.431431
McDonald's,McDonald's - Alpine,900 East Ave E,Alpine,TX,79831,(432) 837-3640,30.360684,-103.65342
McDonald's,McDonald's - Memphis,13615 Blue Lick Road,Memphis,IN,47143,(812) 294-3470,38.490941,-85.770092
McDonald's,McDonald's - Warren,162 North Rd,Warren,OH,44484-4502,(330) 856-3611,41.23626,-80.766122
McDonald's,McDonald's - Phoenix,1601 E Glendale,Phoenix,AZ,85036,(602) 604-8159,33.538022,-112.04715
McDonald's,McDonald's - Kenner,2145 Veterans Memorial Blvd,Kenner,LA,70062-4002,(504) 466-0979,30.006016,-90.238737
McDonald's,McDonald's - Irving,2410 N Story Rd,Irving,TX,75062-7068,(972) 252-8508,32.839749,-96.976076
McDonald's,McDonald's - Mountain Top,Rt 309 & Crestwood Dr,Mountain Top,PA,18707,(570) 474-9412,41.143554,-75.900468
McDonald's,McDonald's - Milan,1177 Dexter Street,Milan,MI,48160,(734) 439-1520,42.095345,-83.677002
McDonald's,McDonald's - Oak Brook,2111 Midwest Rd,Oak Brook,IL,60523,(630) 620-0457,41.84747,-87.971915
McDonald's,McDonald's - Chandler,2951 E Germann Rd,Chandler,AZ,85286,(480) 726-1578,33.276776,-111.790938
McDonald's,McDonald's - Riverside,10141 Magnolia Ave,Riverside,CA,92503,(951) 687-1703,33.913937,-117.458794
McDonald's,McDonald's - Prudenville,1991 W Houghton Lake Dr,Prudenville,MI,48651,(989) 366-5005,44.298283,-84.67825
McDonald's,McDonald's - Carteret,835 Roosevelt Ave,Carteret,NJ,7008,(732) 541-2100,40.590958,-74.229553
McDonald's,McDonald's - Hamilton,1420 Millville Ave,Hamilton,OH,45011,(513) 892-8400,39.40657,-84.609991
McDonald's,McDonald's - Summerville,501 N Main St,Summerville,SC,29483,(843) 821-9004,33.025299,-80.170657
McDonald's,McDonald's - Fredericksburg,2300 Plank Rd,Fredericksburg,VA,22401,(888) 317-0904,38.29582,-77.497919
McDonald's,McDonald's - San Diego,12808 Rancho Penasquitos Boulevard,San Diego,CA,92129-2935,(858) 484-2081,32.950016,-117.107671
McDonald's,McDonald's - Hialeah,330 W 29th St,Hialeah,FL,33012-5708,(305) 888-3497,25.847729,-80.288598
McDonald's,McDonald's - Springfield,5701 Main St,Springfield,OR,97477,(541) 744-1103,44.045384,-122.929165
McDonald's,McDonald's - St. Charles,3701 Elm St,St. Charles,MO,63301,(636) 443-0554,38.819366,-90.513951
McDonald's,McDonald's - Wisconsin Dells,2325 Wisconsin Dells Parkway,Wisconsin Dells,WI,53965,(608) 254-5745,43.624329,-89.786215
McDonald's,McDonald's - Roosevelt,265 Nassau Rd,Roosevelt,NY,11575,(516) 867-9478,40.679344,-73.590233
McDonald's,McDonald's - Boiling Springs,213 South Main Street,Boiling Springs,NC,28152,(704) 434-5512,35.246162,-81.665746
McDonald's,McDonald's - Woodland Hills,23340 Ave San Luis,Woodland Hills,CA,91364,(818) 224-3996,34.15935,-118.635593
McDonald's,McDonald's - Fresno,3115 N Blackstone Ave,Fresno,CA,93703,(559) 229-0539,36.778893,-119.790847
McDonald's,McDonald's - Baltimore,6001 Moravia Rd,Baltimore,MD,21206,(410) 483-6110,39.315155,-76.544693
McDonald's,McDonald's - Stow,712 Steels Corners Rd,Stow,OH,44224,(330) 923-6261,41.180749,-81.483864
McDonald's,McDonald's - Houston,5800 S Gessner Rd,Houston,TX,77036,(713) 541-9538,29.717321,-95.539422
McDonald's,McDonald's - Troy,322 Albemarle Rd,Troy,NC,27371,(910) 576-2120,35.356589,-79.899931
McDonald's,McDonald's - Rock Hill,1785 Mt Gallant Rd,Rock Hill,SC,29732,(803) 980-5145,34.975931,-81.004656
McDonald's,McDonald's - Waite Park,456 Great Oak Dr,Waite Park,MN,56387,(320) 230-6646,45.561848,-94.228541
McDonald's,McDonald's - Caldwell,303 N Green,Caldwell,TX,77836,(979) 567-0605,30.536118,-96.693539
McDonald's,McDonald's - Mcminnville,1334 New Smithville Hwy,Mcminnville,TN,37110,(931) 473-5950,35.70247,-85.780284
McDonald's,McDonald's - Westminster,5155 W 72nd,Westminster,CO,80030-5137,(303) 428-7491,39.827692,-105.052699
McDonald's,McDonald's - Dallas,2475 Royal Ln,Dallas,TX,75229-3416,(972) 243-7833,32.896582,-96.896274
McDonald's,McDonald's - Ontario,1107 East 4th Street,Ontario,CA,91764-2523,(909) 983-0725,34.078289,-117.631721
McDonald's,McDonald's - Twentynine Palms,6455 Adobe Rd,Twentynine Palms,CA,92277-2605,(760) 367-1247,34.13662,-116.053978
McDonald's,McDonald's - Bend,220 Sw Century Dr,Bend,OR,97702,(541) 389-8324,44.0484,-121.331376
McDonald's,McDonald's - San Francisco,302 Potrero Ave,San Francisco,CA,94110,(415) 861-3295,37.765404,-122.407924
McDonald's,McDonald's - Vandalia,820 Veterans Ave,Vandalia,IL,62471-3301,(618) 283-2711,38.976784,-89.101144
McDonald's,McDonald's - Nashville,501 W Washington,Nashville,NC,27856,(252) 459-3073,35.978942,-77.974403
McDonald's,McDonald's - Carolina Beach,220 Lake Park Blvd,Carolina Beach,NC,28428,(910) 458-5918,34.035361,-77.893223
McDonald's,McDonald's - Avon,10747 E Us 36,Avon,IN,46123,(317) 271-8530,39.763117,-86.331897
McDonald's,McDonald's - Bushnell,2195 W C-48,Bushnell,FL,33513,(352) 568-0005,28.668141,-82.139993
McDonald's,McDonald's - Arlington,6230 Matlock Rd,Arlington,TX,76002-2717,(817) 472-7273,32.64373,-97.115817
McDonald's,McDonald's - Kirkland,12440 Ne 144th,Kirkland,WA,98034,(425) 820-9481,47.731595,-122.174217
McDonald's,McDonald's - Danville,132 Old Valley School Road,Danville,PA,17821,(570) 275-1000,40.993624,-76.64012
McDonald's,McDonald's - Defiance,1111 N Clinton St,Defiance,OH,43512-9785,(419) 782-6498,41.30104,-84.360107
McDonald's,McDonald's - Springfield,2115 E Independence,Springfield,MO,65804,(417) 890-0811,37.142715,-93.256128
McDonald's,McDonald's - Brentwood,109 E Park Dr,Brentwood,TN,37027-7505,(615) 377-4622,36.035422,-86.791678
McDonald's,McDonald's - Sanford,112 French Ave,Sanford,FL,32771,(407) 330-0706,28.81108,-81.273652
McDonald's,McDonald's - North Highlands,6749 Watt Ave,North Highlands,CA,95660,(916) 344-9288,38.689891,-121.383389
McDonald's,McDonald's - Tamaqua,Rt 54 & Rt 309,Tamaqua,PA,18252,(570) 668-1891,40.82351,-75.981512
McDonald's,McDonald's - Towanda,Bradford Town Center,Towanda,PA,18848,(570) 265-2220,41.768905,-76.422885
McDonald's,McDonald's - Centreville,2490 Centreville Rd,Centreville,MD,21617,(410) 758-8223,39.031769,-76.076241
McDonald's,McDonald's - Grand Bay,9200 Grand Bay Wilmer Road,Grand Bay,AL,36541,(251) 865-2088,30.498906,-88.335406
McDonald's,McDonald's - Altoona,3215 Adventureland Dr,Altoona,IA,50009-9571,(515) 967-3344,41.658879,-93.496762
McDonald's,McDonald's - Dundee,542 Tecumseh St,Dundee,MI,48131-1054,(734) 529-2423,41.95917,-83.668023
McDonald's,McDonald's - Calera,706 Supercenter Dr,Calera,AL,35040,(205) 668-7588,33.147222,-86.749609
McDonald's,McDonald's - Hartford,1450 E Sumner St,Hartford,WI,53027-2605,(262) 673-4141,43.318092,-88.35375
McDonald's,McDonald's - Mansfield,666 Lexington Springmill Rd,Mansfield,OH,44906,(419) 529-2161,40.770039,-82.589844
McDonald's,McDonald's - Sun Prairie,505 A St,Sun Prairie,WI,53590-2066,(608) 837-6400,43.187946,-89.229947
McDonald's,McDonald's - Dothan,619 W Main St,Dothan,AL,36303,(334) 793-1625,31.224973,-85.400523
McDonald's,McDonald's - Pensacola,123 E Nine Mile Rd,Pensacola,FL,32534,(850) 476-7324,30.532437,-87.266955
McDonald's,McDonald's - Fort Worth,1500 S Main St,Fort Worth,TX,76104,(817) 927-3683,32.727031,-97.32707
McDonald's,McDonald's - Apopka,1681 Rock Springs Rd,Apopka,FL,32712,(407) 880-4434,28.708288,-81.508694
McDonald's,McDonald's - Phoenix,750 W Camelback Rd,Phoenix,AZ,85013-2207,(602) 265-6722,33.509799,-112.084833
McDonald's,McDonald's - North Reading,43 Main St,North Reading,MA,1864,(978) 664-0008,42.569408,-71.108475
McDonald's,McDonald's - Kannapolis,5051 Bayfield Pkwy,Kannapolis,NC,28027,(704) 788-2848,35.420335,-80.675574
McDonald's,McDonald's - Burleson,986 Burleson Blvd,Burleson,TX,76028,(817) 295-3281,32.562812,-97.317261
McDonald's,McDonald's - Salem,150 Canal St,Salem,MA,1970,(978) 745-2727,42.507423,-70.896416
McDonald's,McDonald's - Ontario,1204 Rt 104,Ontario,NY,14519,(315) 524-4061,43.226729,-77.322513
McDonald's,McDonald's - North Babylon,1255 Deer Park Ave,North Babylon,NY,11703,(631) 586-2133,40.738907,-73.320206
McDonald's,McDonald's - Erie,2643 W 26th St,Erie,PA,16506,(814) 838-4508,42.08933,-80.133073
McDonald's,McDonald's - Milpitas,1854 N Milpitas Blvd,Milpitas,CA,95035-2714,(408) 945-6466,37.457391,-121.911057
McDonald's,McDonald's - Sioux Falls,3101 E 26th St,Sioux Falls,SD,57103-4033,(605) 332-1211,43.528929,-96.687043
McDonald's,McDonald's - Raynham,947 Broadway,Raynham,MA,2767,(508) 828-1733,41.953565,-71.069961
McDonald's,McDonald's - Modesto,3801 Yosemite Blvd,Modesto,CA,95357,(209) 577-5063,37.638614,-120.926279
McDonald's,McDonald's - Uhrichsville,101 Mccauley Dr,Uhrichsville,OH,44683,(740) 922-3298,40.410881,-81.348817
McDonald's,McDonald's - Greenville,1301 Wagner Ave,Greenville,OH,45331-2764,(937) 548-1744,40.121869,-84.62124
McDonald's,McDonald's - Gallup,2300 E Historic Highway 66,Gallup,NM,87301,(505) 722-6133,35.528947,-108.708564
McDonald's,McDonald's - Biloxi,692 E Beach Blvd,Biloxi,MS,39530,(228) 435-5106,30.393211,-88.885336
McDonald's,McDonald's - Seneca,101 N St,Seneca,KS,66538,(785) 336-3190,39.841842,-96.05714
McDonald's,McDonald's - La Plata,6385 Crain Highway,La Plata,MD,20646-4209,(301) 934-3600,38.536685,-76.984382
McDonald's,McDonald's - Las Vegas,5947 Spring Mountain Rd,Las Vegas,NV,89103,(702) 888-1692,36.12523,-115.222387
McDonald's,McDonald's - Bronx,2630 Jerome Ave,Bronx,NY,10468,(718) 220-1982,40.866985,-73.897368
McDonald's,McDonald's - Plano,6201 Independence Pky,Plano,TX,75023,(972) 618-6627,33.058416,-96.750973
McDonald's,McDonald's - Port Saint Lucie,1080 Se Port St Lucie,Port Saint Lucie,FL,34952,(772) 337-2600,27.271513,-80.318807
McDonald's,McDonald's - Las Vegas,4855 S Maryland Pky,Las Vegas,NV,89119,(702) 891-0803,36.101743,-115.137484
McDonald's,McDonald's - Rosemead,7503 Garvey Avenue,Rosemead,CA,91770-2911,(626) 571-6573,34.063046,-118.105499
McDonald's,McDonald's - Erie,4316 Buffalo Rd,Erie,PA,16510,(814) 899-1000,42.146042,-80.004448
McDonald's,McDonald's - Millbrae,1101 El Camino Real,Millbrae,CA,94030,(650) 873-3680,37.606554,-122.398421
McDonald's,McDonald's - Santa Barbara,1906 Cliff Dr,Santa Barbara,CA,93109,(805) 965-9968,34.401877,-119.722331
McDonald's,McDonald's - Brownsville,117 America Drive,Brownsville,TX,78526,(956) 982-7999,25.952244,-97.486278
McDonald's,McDonald's - Newport,1930 Monmouth Street,Newport,KY,41071,(859) 261-2000,39.078608,-84.480626
McDonald's,McDonald's - Durham,5277 N Roxboro Road,Durham,NC,27712,(919) 471-9645,36.076339,-78.910301
McDonald's,McDonald's - Galt,324 Pine St,Galt,CA,95632-2046,(209) 251-7930,38.252795,-121.294645
McDonald's,McDonald's - Dover,912 Central Ave,Dover,NH,3820,(603) 742-9813,43.219787,-70.885818
McDonald's,McDonald's - Taylor,10236 S Telegraph Road,Taylor,MI,48180-3330,(313) 292-5202,42.232105,-83.270233
McDonald's,McDonald's - Chicago,225 S Canal St,Chicago,IL,60606,(312) 627-9234,41.878745,-87.639122
McDonald's,McDonald's - Joliet,1421 Riverboat Center Dr,Joliet,IL,60432,(815) 730-8141,41.495039,-88.167996
McDonald's,McDonald's - Caribou,127 Bennett Drive,Caribou,ME,4736,(207) 498-2181,46.869259,-68.003203
McDonald's,McDonald's - Benton Harbor,2020 Pipestone Rd,Benton Harbor,MI,49022,(269) 926-7600,42.080144,-86.417816
